{
"type": "FeatureCollection",
"name": "Fire Stations",
"crs": { "type": "name", "properties": { "name": "urn:ogc:def:crs:OGC:1.3:CRS84" } },
"features": [
{ "type": "Feature", "properties": { "OBJECTID": 1, "PERMANENT_IDENTIFIER": "ab553848-30ec-4b8f-a931-7596fd75a0c7", "SOURCE_FEATUREID": "10142807", "SOURCE_DATASETID": "{43CAF7AD-177F-413D-90DA-C94E9789FEC8}", "SOURCE_DATADESC": "NSD TNMC VWE Database Build - Reviewed features", "SOURCE_ORIGINATOR": "U.S. Geological Survey", "DATA_SECURITY": 5, "DISTRIBUTION_POLICY": "E4", "LOADDATE": "2012\/02\/27 13:53:49", "FTYPE": 740, "FCODE": 74026, "NAME": "Woodville Volunteer Fire Department", "ISLANDMARK": 2, "POINTLOCATIONTYPE": 1, "ADMINTYPE": 0, "ADDRESSBUILDINGNAME": " ", "ADDRESS": "216 West Walt Davis Drive", "CITY": "Woodville", "STATE": "TX", "ZIPCODE": "75979", "GNIS_ID": "2655151", "FOOT_ID": " ", "COMPLEX_ID": null, "GLOBALID": "{3B30D489-FF9C-438E-8B0A-1931196B9E65}" }, "geometry": { "type": "Point", "coordinates": [ -94.416957910079546, 30.776173101793145 ] } },
{ "type": "Feature", "properties": { "OBJECTID": 2, "PERMANENT_IDENTIFIER": "{E41873BC-0DE9-4BC4-AE32-10C3BB9C9AAC}", "SOURCE_FEATUREID": null, "SOURCE_DATASETID": "{43CAF7AD-177F-413D-90DA-C94E9789FEC8}", "SOURCE_DATADESC": "NSD TNMC VWE Database Build - Reviewed features", "SOURCE_ORIGINATOR": "U.S. Geological Survey", "DATA_SECURITY": 5, "DISTRIBUTION_POLICY": "E4", "LOADDATE": "2012\/02\/27 13:53:49", "FTYPE": 740, "FCODE": 74026, "NAME": "Texas Forest Service Kountze Office", "ISLANDMARK": 2, "POINTLOCATIONTYPE": 4, "ADMINTYPE": null, "ADDRESSBUILDINGNAME": " ", "ADDRESS": "3882 US Highway 69 South", "CITY": "Kountze", "STATE": "TX", "ZIPCODE": "77625", "GNIS_ID": "2655623", "FOOT_ID": null, "COMPLEX_ID": null, "GLOBALID": "{BD018E1B-246B-44E0-A8D4-FDDBD6D6B68E}" }, "geometry": { "type": "Point", "coordinates": [ -94.290547250996212, 30.349303555911494 ] } },
{ "type": "Feature", "properties": { "OBJECTID": 3, "PERMANENT_IDENTIFIER": "{CF001629-1BAC-47A7-B142-E781B95C43EF}", "SOURCE_FEATUREID": null, "SOURCE_DATASETID": "{43CAF7AD-177F-413D-90DA-C94E9789FEC8}", "SOURCE_DATADESC": "NSD TNMC VWE Database Build - Reviewed features", "SOURCE_ORIGINATOR": "U.S. Geological Survey", "DATA_SECURITY": 5, "DISTRIBUTION_POLICY": "E4", "LOADDATE": "2012\/02\/27 13:53:49", "FTYPE": 740, "FCODE": 74026, "NAME": "Beaumont Fire and Rescue Station 6", "ISLANDMARK": 2, "POINTLOCATIONTYPE": 4, "ADMINTYPE": null, "ADDRESSBUILDINGNAME": " ", "ADDRESS": "1880 South Major Drive", "CITY": "Beaumont", "STATE": "TX", "ZIPCODE": "77707", "GNIS_ID": "2655673", "FOOT_ID": null, "COMPLEX_ID": null, "GLOBALID": "{5A1AA46F-60C0-4CB1-B704-11D156124F71}" }, "geometry": { "type": "Point", "coordinates": [ -94.190069206942169, 30.058245778289606 ] } },
{ "type": "Feature", "properties": { "OBJECTID": 4, "PERMANENT_IDENTIFIER": "{86E405F4-B83B-4936-94C7-13839657460F}", "SOURCE_FEATUREID": null, "SOURCE_DATASETID": "{43CAF7AD-177F-413D-90DA-C94E9789FEC8}", "SOURCE_DATADESC": "NSD TNMC VWE Database Build - Reviewed features", "SOURCE_ORIGINATOR": "U.S. Geological Survey", "DATA_SECURITY": 5, "DISTRIBUTION_POLICY": "E4", "LOADDATE": "2012\/02\/27 13:53:49", "FTYPE": 740, "FCODE": 74026, "NAME": "Highway 321 Volunteer Fire Department", "ISLANDMARK": 2, "POINTLOCATIONTYPE": 4, "ADMINTYPE": null, "ADDRESSBUILDINGNAME": " ", "ADDRESS": "9491 State Highway 321", "CITY": "Dayton", "STATE": "TX", "ZIPCODE": "77535", "GNIS_ID": "2655704", "FOOT_ID": null, "COMPLEX_ID": null, "GLOBALID": "{C3360EDC-96DE-4C20-8497-35452111D97D}" }, "geometry": { "type": "Point", "coordinates": [ -94.928502806612997, 30.136605790137743 ] } },
{ "type": "Feature", "properties": { "OBJECTID": 5, "PERMANENT_IDENTIFIER": "{AAC3C4F8-941D-4F72-952F-7A2B31A0CF77}", "SOURCE_FEATUREID": "10410077", "SOURCE_DATASETID": "{43CAF7AD-177F-413D-90DA-C94E9789FEC8}", "SOURCE_DATADESC": "NSD TNMC VWE Database Build - Reviewed features", "SOURCE_ORIGINATOR": "U.S. Geological Survey", "DATA_SECURITY": 5, "DISTRIBUTION_POLICY": "E4", "LOADDATE": "2012\/02\/27 13:53:49", "FTYPE": 740, "FCODE": 74026, "NAME": "Hankamer Volunteer Fire Department", "ISLANDMARK": 2, "POINTLOCATIONTYPE": 1, "ADMINTYPE": 6, "ADDRESSBUILDINGNAME": null, "ADDRESS": "9436 State Highway 61", "CITY": "Hankamer", "STATE": "TX", "ZIPCODE": "77560", "GNIS_ID": "2334580", "FOOT_ID": null, "COMPLEX_ID": null, "GLOBALID": "{016C07BE-206F-45E1-9548-C0D2DBA05564}" }, "geometry": { "type": "Point", "coordinates": [ -94.627477308192141, 29.861225045446968 ] } },
{ "type": "Feature", "properties": { "OBJECTID": 6, "PERMANENT_IDENTIFIER": "905ea8fc-d7d9-431f-81b8-3c96a5cd5714", "SOURCE_FEATUREID": "10410344", "SOURCE_DATASETID": "{43CAF7AD-177F-413D-90DA-C94E9789FEC8}", "SOURCE_DATADESC": "NSD TNMC VWE Database Build - Reviewed features", "SOURCE_ORIGINATOR": "U.S. Geological Survey", "DATA_SECURITY": 5, "DISTRIBUTION_POLICY": "E4", "LOADDATE": "2012\/02\/27 13:53:49", "FTYPE": 740, "FCODE": 74026, "NAME": "Woodpecker Volunteer Fire Department", "ISLANDMARK": 2, "POINTLOCATIONTYPE": 4, "ADMINTYPE": 6, "ADDRESSBUILDINGNAME": " ", "ADDRESS": "County Road 2668", "CITY": "Rye", "STATE": "TX", "ZIPCODE": "77369", "GNIS_ID": "2334429", "FOOT_ID": " ", "COMPLEX_ID": null, "GLOBALID": "{9C572A4B-8C76-452E-9B90-C23BA54D2030}" }, "geometry": { "type": "Point", "coordinates": [ -94.740000462140642, 30.46662181261398 ] } },
{ "type": "Feature", "properties": { "OBJECTID": 7, "PERMANENT_IDENTIFIER": "b814bef6-842b-45cd-ab1d-c40cbe8c6f3f", "SOURCE_FEATUREID": "10142787", "SOURCE_DATASETID": "{43CAF7AD-177F-413D-90DA-C94E9789FEC8}", "SOURCE_DATADESC": "NSD TNMC VWE Database Build - Reviewed features", "SOURCE_ORIGINATOR": "U.S. Geological Survey", "DATA_SECURITY": 5, "DISTRIBUTION_POLICY": "E4", "LOADDATE": "2012\/02\/27 13:53:49", "FTYPE": 740, "FCODE": 74026, "NAME": "Raywood Volunteer Fire Department", "ISLANDMARK": 2, "POINTLOCATIONTYPE": 1, "ADMINTYPE": 6, "ADDRESSBUILDINGNAME": " ", "ADDRESS": "139 County Road 120", "CITY": "Raywood", "STATE": "TX", "ZIPCODE": "77582", "GNIS_ID": "2334535", "FOOT_ID": " ", "COMPLEX_ID": null, "GLOBALID": "{9D3B6604-4B50-4691-B0E6-53E2C1966AE8}" }, "geometry": { "type": "Point", "coordinates": [ -94.671410016338314, 30.039985917162589 ] } },
{ "type": "Feature", "properties": { "OBJECTID": 8, "PERMANENT_IDENTIFIER": "{5D61E418-4559-4E4E-BCA2-602587C2B586}", "SOURCE_FEATUREID": null, "SOURCE_DATASETID": "{43CAF7AD-177F-413D-90DA-C94E9789FEC8}", "SOURCE_DATADESC": "NSD TNMC VWE Database Build - Reviewed features", "SOURCE_ORIGINATOR": "U.S. Geological Survey", "DATA_SECURITY": 5, "DISTRIBUTION_POLICY": "E4", "LOADDATE": "2012\/02\/27 13:53:49", "FTYPE": 740, "FCODE": 74026, "NAME": "Texas Forest Service Kirbyville Office", "ISLANDMARK": 2, "POINTLOCATIONTYPE": 4, "ADMINTYPE": null, "ADDRESSBUILDINGNAME": " ", "ADDRESS": "1450 Farm to Market Road 82 East", "CITY": "Kirbyville", "STATE": "TX", "ZIPCODE": "75956", "GNIS_ID": "2655580", "FOOT_ID": null, "COMPLEX_ID": null, "GLOBALID": "{1010269B-7D8B-4325-8C3E-5AF983EFFC4E}" }, "geometry": { "type": "Point", "coordinates": [ -93.922415269723473, 30.642283229697938 ] } },
{ "type": "Feature", "properties": { "OBJECTID": 9, "PERMANENT_IDENTIFIER": "{13558AA8-2261-4229-8154-47EC90532D48}", "SOURCE_FEATUREID": null, "SOURCE_DATASETID": "{43CAF7AD-177F-413D-90DA-C94E9789FEC8}", "SOURCE_DATADESC": "NSD TNMC VWE Database Build - Reviewed features", "SOURCE_ORIGINATOR": "U.S. Geological Survey", "DATA_SECURITY": 5, "DISTRIBUTION_POLICY": "E4", "LOADDATE": "2012\/02\/27 13:53:49", "FTYPE": 740, "FCODE": 74026, "NAME": "Beaumont Fire and Rescue Station 11", "ISLANDMARK": 2, "POINTLOCATIONTYPE": 4, "ADMINTYPE": null, "ADDRESSBUILDINGNAME": " ", "ADDRESS": "2185 Sabine Pass Avenue", "CITY": "Beaumont", "STATE": "TX", "ZIPCODE": "77701", "GNIS_ID": "2655670", "FOOT_ID": null, "COMPLEX_ID": null, "GLOBALID": "{8CB84E06-1C6E-46D3-90C9-5FC36F13087B}" }, "geometry": { "type": "Point", "coordinates": [ -94.090998186931117, 30.066762204878625 ] } },
{ "type": "Feature", "properties": { "OBJECTID": 10, "PERMANENT_IDENTIFIER": "6066e4eb-346c-4075-b43c-d4bbf537cc73", "SOURCE_FEATUREID": "10413372", "SOURCE_DATASETID": "{43CAF7AD-177F-413D-90DA-C94E9789FEC8}", "SOURCE_DATADESC": "NSD TNMC VWE Database Build - Reviewed features", "SOURCE_ORIGINATOR": "U.S. Geological Survey", "DATA_SECURITY": 5, "DISTRIBUTION_POLICY": "E4", "LOADDATE": "2012\/02\/27 13:53:49", "FTYPE": 740, "FCODE": 74026, "NAME": "Newton Volunteer Fire Department", "ISLANDMARK": 0, "POINTLOCATIONTYPE": 4, "ADMINTYPE": 0, "ADDRESSBUILDINGNAME": " ", "ADDRESS": "154 Court Street", "CITY": "Newton", "STATE": "TX", "ZIPCODE": "75966", "GNIS_ID": "2655243", "FOOT_ID": " ", "COMPLEX_ID": null, "GLOBALID": "{4103DE61-1FB8-48A2-A76C-721DE7FCBC51}" }, "geometry": { "type": "Point", "coordinates": [ -93.758986778716576, 30.848536158942185 ] } },
{ "type": "Feature", "properties": { "OBJECTID": 11, "PERMANENT_IDENTIFIER": "6eb3bbe6-e5ec-4307-baed-7d72a70c02ca", "SOURCE_FEATUREID": "10415553", "SOURCE_DATASETID": "{43CAF7AD-177F-413D-90DA-C94E9789FEC8}", "SOURCE_DATADESC": "NSD TNMC VWE Database Build - Reviewed features", "SOURCE_ORIGINATOR": "U.S. Geological Survey", "DATA_SECURITY": 5, "DISTRIBUTION_POLICY": "E4", "LOADDATE": "2012\/02\/27 13:53:49", "FTYPE": 740, "FCODE": 74026, "NAME": "Hemphill Volunteer Fire Department", "ISLANDMARK": 0, "POINTLOCATIONTYPE": 4, "ADMINTYPE": 0, "ADDRESSBUILDINGNAME": " ", "ADDRESS": "210 Starr Street", "CITY": "Hemphill", "STATE": "TX", "ZIPCODE": "75948", "GNIS_ID": "2655236", "FOOT_ID": " ", "COMPLEX_ID": null, "GLOBALID": "{A6D74D72-C53D-454B-A88D-052009C18606}" }, "geometry": { "type": "Point", "coordinates": [ -93.853133864957414, 31.342466633874544 ] } },
{ "type": "Feature", "properties": { "OBJECTID": 12, "PERMANENT_IDENTIFIER": "eb7c07e8-5459-40b5-b3b7-94303ae76d86", "SOURCE_FEATUREID": "TX001256", "SOURCE_DATASETID": "{43CAF7AD-177F-413D-90DA-C94E9789FEC8}", "SOURCE_DATADESC": "NSD TNMC VWE Database Build - Reviewed features", "SOURCE_ORIGINATOR": "U.S. Geological Survey", "DATA_SECURITY": 5, "DISTRIBUTION_POLICY": "E4", "LOADDATE": "2012\/02\/27 13:53:49", "FTYPE": 740, "FCODE": 74026, "NAME": "Big Thicket Lake Estates Volunteer Fire Department", "ISLANDMARK": 2, "POINTLOCATIONTYPE": 4, "ADMINTYPE": 6, "ADDRESSBUILDINGNAME": " ", "ADDRESS": "State Highway 146", "CITY": "Rye", "STATE": "TX", "ZIPCODE": "77369", "GNIS_ID": "2334318", "FOOT_ID": " ", "COMPLEX_ID": null, "GLOBALID": "{505F5DE9-A643-4FD3-88C2-D729E5080B8E}" }, "geometry": { "type": "Point", "coordinates": [ -94.780091409091597, 30.483466930188548 ] } },
{ "type": "Feature", "properties": { "OBJECTID": 13, "PERMANENT_IDENTIFIER": "5928b69a-f63b-4777-8bcc-609697cc570b", "SOURCE_FEATUREID": "10166735", "SOURCE_DATASETID": "{43CAF7AD-177F-413D-90DA-C94E9789FEC8}", "SOURCE_DATADESC": "NSD TNMC VWE Database Build - Reviewed features", "SOURCE_ORIGINATOR": "U.S. Geological Survey", "DATA_SECURITY": 5, "DISTRIBUTION_POLICY": "E4", "LOADDATE": "2012\/02\/27 13:53:49", "FTYPE": 740, "FCODE": 74026, "NAME": "Lumberton Fire Department and Emergency Medical Services", "ISLANDMARK": 2, "POINTLOCATIONTYPE": 4, "ADMINTYPE": 6, "ADDRESSBUILDINGNAME": " ", "ADDRESS": "228 Country Lane Drive", "CITY": "Lumberton", "STATE": "TX", "ZIPCODE": "77657", "GNIS_ID": "2334521", "FOOT_ID": " ", "COMPLEX_ID": null, "GLOBALID": "{BED3DC25-3E46-4076-B6C8-E84F7952FC6F}" }, "geometry": { "type": "Point", "coordinates": [ -94.206682101834346, 30.243053386409557 ] } },
{ "type": "Feature", "properties": { "OBJECTID": 14, "PERMANENT_IDENTIFIER": "95c04868-ee17-475c-b17c-d7d14635da18", "SOURCE_FEATUREID": "10169069", "SOURCE_DATASETID": "{43CAF7AD-177F-413D-90DA-C94E9789FEC8}", "SOURCE_DATADESC": "NSD TNMC VWE Database Build - Reviewed features", "SOURCE_ORIGINATOR": "U.S. Geological Survey", "DATA_SECURITY": 5, "DISTRIBUTION_POLICY": "E4", "LOADDATE": "2012\/02\/27 13:53:49", "FTYPE": 740, "FCODE": 74026, "NAME": "Devers Volunteer Fire Department", "ISLANDMARK": 2, "POINTLOCATIONTYPE": 4, "ADMINTYPE": 6, "ADDRESSBUILDINGNAME": " ", "ADDRESS": "104 South Gates Road", "CITY": "Devers", "STATE": "TX", "ZIPCODE": "77538", "GNIS_ID": "2334548", "FOOT_ID": " ", "COMPLEX_ID": null, "GLOBALID": "{44762889-7F41-4671-B930-F23A7E1873BF}" }, "geometry": { "type": "Point", "coordinates": [ -94.592140323878183, 30.027125935938102 ] } },
{ "type": "Feature", "properties": { "OBJECTID": 15, "PERMANENT_IDENTIFIER": "{B02E0CE2-20AE-41B9-BDBE-848F88A4D906}", "SOURCE_FEATUREID": null, "SOURCE_DATASETID": "{43CAF7AD-177F-413D-90DA-C94E9789FEC8}", "SOURCE_DATADESC": "NSD TNMC VWE Database Build - Reviewed features", "SOURCE_ORIGINATOR": "U.S. Geological Survey", "DATA_SECURITY": 5, "DISTRIBUTION_POLICY": "E4", "LOADDATE": "2012\/02\/27 13:53:49", "FTYPE": 740, "FCODE": 74026, "NAME": "Scenic Loop Volunteer Fire Department", "ISLANDMARK": 2, "POINTLOCATIONTYPE": 1, "ADMINTYPE": null, "ADDRESSBUILDINGNAME": " ", "ADDRESS": "1406 Farm to Market Road 3277", "CITY": "Livingston", "STATE": "TX", "ZIPCODE": "77351", "GNIS_ID": "2655427", "FOOT_ID": null, "COMPLEX_ID": null, "GLOBALID": "{34B552BF-D1C9-4A0E-9FC0-722CB6F8ED9C}" }, "geometry": { "type": "Point", "coordinates": [ -95.100638379309643, 30.723582503894409 ] } },
{ "type": "Feature", "properties": { "OBJECTID": 16, "PERMANENT_IDENTIFIER": "0a3dfafc-000b-489f-99f3-1f78df5afa85", "SOURCE_FEATUREID": "10410399", "SOURCE_DATASETID": "{43CAF7AD-177F-413D-90DA-C94E9789FEC8}", "SOURCE_DATADESC": "NSD TNMC VWE Database Build - Reviewed features", "SOURCE_ORIGINATOR": "U.S. Geological Survey", "DATA_SECURITY": 5, "DISTRIBUTION_POLICY": "E4", "LOADDATE": "2012\/02\/27 13:53:49", "FTYPE": 740, "FCODE": 74026, "NAME": "Jasper Volunteer Fire Department Station 1", "ISLANDMARK": 0, "POINTLOCATIONTYPE": 4, "ADMINTYPE": 0, "ADDRESSBUILDINGNAME": " ", "ADDRESS": "205 East Water Street", "CITY": "Jasper", "STATE": "TX", "ZIPCODE": "75951", "GNIS_ID": "2655214", "FOOT_ID": " ", "COMPLEX_ID": null, "GLOBALID": "{D94F1665-52F4-431C-AA37-B29F9D1B129C}" }, "geometry": { "type": "Point", "coordinates": [ -93.999156528950621, 30.919481322121445 ] } },
{ "type": "Feature", "properties": { "OBJECTID": 17, "PERMANENT_IDENTIFIER": "{B590DD79-ED45-47F5-9F92-B83D66EB6BE8}", "SOURCE_FEATUREID": null, "SOURCE_DATASETID": "{43CAF7AD-177F-413D-90DA-C94E9789FEC8}", "SOURCE_DATADESC": "NSD TNMC VWE Database Build - Reviewed features", "SOURCE_ORIGINATOR": "U.S. Geological Survey", "DATA_SECURITY": 5, "DISTRIBUTION_POLICY": "E4", "LOADDATE": "2012\/02\/27 13:53:49", "FTYPE": 740, "FCODE": 74026, "NAME": "Jasper Volunteer Fire Department Station 2", "ISLANDMARK": 2, "POINTLOCATIONTYPE": 4, "ADMINTYPE": null, "ADDRESSBUILDINGNAME": " ", "ADDRESS": "1 Parkway Boulevard", "CITY": "Jasper", "STATE": "TX", "ZIPCODE": "75951", "GNIS_ID": "2655396", "FOOT_ID": null, "COMPLEX_ID": null, "GLOBALID": "{D7EE611C-D091-4602-9929-9EF2FF8C08DD}" }, "geometry": { "type": "Point", "coordinates": [ -94.032604810769598, 30.897029177701643 ] } },
{ "type": "Feature", "properties": { "OBJECTID": 18, "PERMANENT_IDENTIFIER": "{11DA1284-653B-44E1-A8A3-D902E47489EF}", "SOURCE_FEATUREID": null, "SOURCE_DATASETID": "{43CAF7AD-177F-413D-90DA-C94E9789FEC8}", "SOURCE_DATADESC": "NSD TNMC VWE Database Build - Reviewed features", "SOURCE_ORIGINATOR": "U.S. Geological Survey", "DATA_SECURITY": 5, "DISTRIBUTION_POLICY": "E4", "LOADDATE": "2012\/02\/27 13:53:49", "FTYPE": 740, "FCODE": 74026, "NAME": "Bridge City Volunteer Fire and Rescue Orangefield Station", "ISLANDMARK": 2, "POINTLOCATIONTYPE": 4, "ADMINTYPE": null, "ADDRESSBUILDINGNAME": " ", "ADDRESS": "9540 Farm to Market Road 105", "CITY": "Orange", "STATE": "TX", "ZIPCODE": "77630", "GNIS_ID": "2655663", "FOOT_ID": null, "COMPLEX_ID": null, "GLOBALID": "{BF303CF3-FD31-47F6-A571-15CB290EFE82}" }, "geometry": { "type": "Point", "coordinates": [ -93.855259325632048, 30.076075715017414 ] } },
{ "type": "Feature", "properties": { "OBJECTID": 19, "PERMANENT_IDENTIFIER": "{E4BDA400-B443-4E85-BF85-71E967F457FB}", "SOURCE_FEATUREID": null, "SOURCE_DATASETID": "{43CAF7AD-177F-413D-90DA-C94E9789FEC8}", "SOURCE_DATADESC": "NSD TNMC VWE Database Build - Reviewed features", "SOURCE_ORIGINATOR": "U.S. Geological Survey", "DATA_SECURITY": 5, "DISTRIBUTION_POLICY": "E4", "LOADDATE": "2012\/02\/27 13:53:49", "FTYPE": 740, "FCODE": 74026, "NAME": "Orange Fire Department Station 3", "ISLANDMARK": 2, "POINTLOCATIONTYPE": 4, "ADMINTYPE": null, "ADDRESSBUILDINGNAME": " ", "ADDRESS": "1717 Martin Luther King Drive", "CITY": "Orange", "STATE": "TX", "ZIPCODE": "77630", "GNIS_ID": "2655526", "FOOT_ID": null, "COMPLEX_ID": null, "GLOBALID": "{6D0F26A2-44E9-4F7D-9AD2-E9BAC2B5E511}" }, "geometry": { "type": "Point", "coordinates": [ -93.780077008138861, 30.108042724367383 ] } },
{ "type": "Feature", "properties": { "OBJECTID": 20, "PERMANENT_IDENTIFIER": "b3417bb6-f2dc-4379-b6b7-a3dabd864108", "SOURCE_FEATUREID": "TX001243", "SOURCE_DATASETID": "{43CAF7AD-177F-413D-90DA-C94E9789FEC8}", "SOURCE_DATADESC": "NSD TNMC VWE Database Build - Reviewed features", "SOURCE_ORIGINATOR": "U.S. Geological Survey", "DATA_SECURITY": 5, "DISTRIBUTION_POLICY": "E4", "LOADDATE": "2012\/02\/27 13:53:49", "FTYPE": 740, "FCODE": 74026, "NAME": "North Liberty County Fire Department", "ISLANDMARK": 2, "POINTLOCATIONTYPE": 1, "ADMINTYPE": 0, "ADDRESSBUILDINGNAME": " ", "ADDRESS": "Farm to Market Road 787 West and Farm to Market Road 2610", "CITY": "Cleveland", "STATE": "TX", "ZIPCODE": "77327", "GNIS_ID": "2334348", "FOOT_ID": " ", "COMPLEX_ID": null, "GLOBALID": "{22E8A210-04E7-458F-9574-780451AA511F}" }, "geometry": { "type": "Point", "coordinates": [ -94.839019338542712, 30.450033616086206 ] } },
{ "type": "Feature", "properties": { "OBJECTID": 21, "PERMANENT_IDENTIFIER": "{BAA45198-F3E8-4646-AF7E-C8A22739BFAA}", "SOURCE_FEATUREID": null, "SOURCE_DATASETID": "{43CAF7AD-177F-413D-90DA-C94E9789FEC8}", "SOURCE_DATADESC": "NSD TNMC VWE Database Build - Reviewed features", "SOURCE_ORIGINATOR": "U.S. Geological Survey", "DATA_SECURITY": 5, "DISTRIBUTION_POLICY": "E4", "LOADDATE": "2012\/02\/27 13:53:49", "FTYPE": 740, "FCODE": 74026, "NAME": "Coldspring Volunteer Fire Department Substation", "ISLANDMARK": 2, "POINTLOCATIONTYPE": 4, "ADMINTYPE": null, "ADDRESSBUILDINGNAME": " ", "ADDRESS": "300 South Cape Royale Drive", "CITY": "Coldspring", "STATE": "TX", "ZIPCODE": "77331", "GNIS_ID": "2655383", "FOOT_ID": null, "COMPLEX_ID": null, "GLOBALID": "{B8ACCA89-2AC9-4919-95D4-D126B050DD60}" }, "geometry": { "type": "Point", "coordinates": [ -95.144228886824735, 30.647779987261472 ] } },
{ "type": "Feature", "properties": { "OBJECTID": 22, "PERMANENT_IDENTIFIER": "{983B2C4A-D975-41FA-A778-13877F782834}", "SOURCE_FEATUREID": null, "SOURCE_DATASETID": "{43CAF7AD-177F-413D-90DA-C94E9789FEC8}", "SOURCE_DATADESC": "NSD TNMC VWE Database Build - Reviewed features", "SOURCE_ORIGINATOR": "U.S. Geological Survey", "DATA_SECURITY": 5, "DISTRIBUTION_POLICY": "E4", "LOADDATE": "2012\/02\/27 13:53:49", "FTYPE": 740, "FCODE": 74026, "NAME": "Denning New Hope Volunteer Fire Department", "ISLANDMARK": 2, "POINTLOCATIONTYPE": 4, "ADMINTYPE": null, "ADDRESSBUILDINGNAME": " ", "ADDRESS": "6917 State Highway 21 West", "CITY": "San Augustine", "STATE": "TX", "ZIPCODE": "75972", "GNIS_ID": "2655572", "FOOT_ID": null, "COMPLEX_ID": null, "GLOBALID": "{5DB18A63-D7D6-4594-8F05-DB5A5D62FC5A}" }, "geometry": { "type": "Point", "coordinates": [ -94.238806995458248, 31.512073394528429 ] } },
{ "type": "Feature", "properties": { "OBJECTID": 23, "PERMANENT_IDENTIFIER": "1641b801-b038-4fc5-ba3a-8831687183af", "SOURCE_FEATUREID": "10410078", "SOURCE_DATASETID": "{43CAF7AD-177F-413D-90DA-C94E9789FEC8}", "SOURCE_DATADESC": "NSD TNMC VWE Database Build - Reviewed features", "SOURCE_ORIGINATOR": "U.S. Geological Survey", "DATA_SECURITY": 5, "DISTRIBUTION_POLICY": "E4", "LOADDATE": "2012\/02\/27 13:53:49", "FTYPE": 740, "FCODE": 74026, "NAME": "Smith Point Volunteer Fire Department and Emergency Services", "ISLANDMARK": 2, "POINTLOCATIONTYPE": 4, "ADMINTYPE": 6, "ADDRESSBUILDINGNAME": " ", "ADDRESS": "309 Plummer Camp Road", "CITY": "Anahuac", "STATE": "TX", "ZIPCODE": "77514", "GNIS_ID": "2334391", "FOOT_ID": " ", "COMPLEX_ID": null, "GLOBALID": "{CF6DD542-3BAE-41A0-B952-C6F9430815D2}" }, "geometry": { "type": "Point", "coordinates": [ -94.759667404420014, 29.534680073444779 ] } },
{ "type": "Feature", "properties": { "OBJECTID": 24, "PERMANENT_IDENTIFIER": "30517f97-782a-45ad-8454-69c61cb1799a", "SOURCE_FEATUREID": "10415550", "SOURCE_DATASETID": "{43CAF7AD-177F-413D-90DA-C94E9789FEC8}", "SOURCE_DATADESC": "NSD TNMC VWE Database Build - Reviewed features", "SOURCE_ORIGINATOR": "U.S. Geological Survey", "DATA_SECURITY": 5, "DISTRIBUTION_POLICY": "E4", "LOADDATE": "2012\/02\/27 13:53:49", "FTYPE": 740, "FCODE": 74026, "NAME": "Bronson Rural Volunteer Fire Department", "ISLANDMARK": 0, "POINTLOCATIONTYPE": 1, "ADMINTYPE": 0, "ADDRESSBUILDINGNAME": " ", "ADDRESS": "11000 State Highway 184", "CITY": "Bronson", "STATE": "TX", "ZIPCODE": "75930", "GNIS_ID": "2655209", "FOOT_ID": " ", "COMPLEX_ID": null, "GLOBALID": "{0A335071-4DF4-4C7B-847B-E1850CFCEE08}" }, "geometry": { "type": "Point", "coordinates": [ -94.010712527732437, 31.345180669012926 ] } },
{ "type": "Feature", "properties": { "OBJECTID": 25, "PERMANENT_IDENTIFIER": "{A7AD2AF5-11A1-41E6-85FC-9C33EF7FD935}", "SOURCE_FEATUREID": null, "SOURCE_DATASETID": "{43CAF7AD-177F-413D-90DA-C94E9789FEC8}", "SOURCE_DATADESC": "NSD TNMC VWE Database Build - Reviewed features", "SOURCE_ORIGINATOR": "U.S. Geological Survey", "DATA_SECURITY": 5, "DISTRIBUTION_POLICY": "E4", "LOADDATE": "2012\/02\/27 13:53:49", "FTYPE": 740, "FCODE": 74026, "NAME": "Roganville Volunteer Fire Department", "ISLANDMARK": 2, "POINTLOCATIONTYPE": 4, "ADMINTYPE": null, "ADDRESSBUILDINGNAME": " ", "ADDRESS": "County Road 425", "CITY": "Jasper", "STATE": "TX", "ZIPCODE": "75951", "GNIS_ID": "2655368", "FOOT_ID": null, "COMPLEX_ID": null, "GLOBALID": "{074F487A-4B6E-459F-82F1-8A8460B13946}" }, "geometry": { "type": "Point", "coordinates": [ -93.901694472461813, 30.800586562589984 ] } },
{ "type": "Feature", "properties": { "OBJECTID": 26, "PERMANENT_IDENTIFIER": "{865849BC-A9F9-4326-AF88-98FDC15BBB93}", "SOURCE_FEATUREID": null, "SOURCE_DATASETID": "{43CAF7AD-177F-413D-90DA-C94E9789FEC8}", "SOURCE_DATADESC": "NSD TNMC VWE Database Build - Reviewed features", "SOURCE_ORIGINATOR": "U.S. Geological Survey", "DATA_SECURITY": 5, "DISTRIBUTION_POLICY": "E4", "LOADDATE": "2012\/02\/27 13:53:49", "FTYPE": 740, "FCODE": 74026, "NAME": "Port Arthur Fire Department Station Number 8", "ISLANDMARK": 2, "POINTLOCATIONTYPE": 4, "ADMINTYPE": null, "ADDRESSBUILDINGNAME": " ", "ADDRESS": "7800 9th Avenue", "CITY": "Port Arthur", "STATE": "TX", "ZIPCODE": "77642", "GNIS_ID": "2655446", "FOOT_ID": null, "COMPLEX_ID": null, "GLOBALID": "{E4E687A4-83BF-4BA9-8F61-67F6A7BE725D}" }, "geometry": { "type": "Point", "coordinates": [ -93.976270852041353, 29.947505884705222 ] } },
{ "type": "Feature", "properties": { "OBJECTID": 27, "PERMANENT_IDENTIFIER": "{CC64B64C-2023-4699-8D4F-2F0DEEE328CA}", "SOURCE_FEATUREID": null, "SOURCE_DATASETID": "{43CAF7AD-177F-413D-90DA-C94E9789FEC8}", "SOURCE_DATADESC": "NSD TNMC VWE Database Build - Reviewed features", "SOURCE_ORIGINATOR": "U.S. Geological Survey", "DATA_SECURITY": 5, "DISTRIBUTION_POLICY": "E4", "LOADDATE": "2012\/02\/27 13:53:49", "FTYPE": 740, "FCODE": 74026, "NAME": "Labelle - Fannett Volunteer Fire Department \/ Emergency Medical Services Substation", "ISLANDMARK": 2, "POINTLOCATIONTYPE": 1, "ADMINTYPE": null, "ADDRESSBUILDINGNAME": " ", "ADDRESS": "3473 Pinetree Road", "CITY": "Beaumont", "STATE": "TX", "ZIPCODE": "77705", "GNIS_ID": "2655662", "FOOT_ID": null, "COMPLEX_ID": null, "GLOBALID": "{53569924-9D89-469A-BF3C-FAE42EAD323F}" }, "geometry": { "type": "Point", "coordinates": [ -94.160259095735654, 29.878453362658028 ] } },
{ "type": "Feature", "properties": { "OBJECTID": 28, "PERMANENT_IDENTIFIER": "deba1d75-c941-4c9f-b74a-98438c6fad3e", "SOURCE_FEATUREID": "10414060", "SOURCE_DATASETID": "{43CAF7AD-177F-413D-90DA-C94E9789FEC8}", "SOURCE_DATADESC": "NSD TNMC VWE Database Build - Reviewed features", "SOURCE_ORIGINATOR": "U.S. Geological Survey", "DATA_SECURITY": 5, "DISTRIBUTION_POLICY": "E4", "LOADDATE": "2012\/02\/27 13:53:49", "FTYPE": 740, "FCODE": 74026, "NAME": "West Orange Volunteer Fire Department", "ISLANDMARK": 2, "POINTLOCATIONTYPE": 4, "ADMINTYPE": 6, "ADDRESSBUILDINGNAME": " ", "ADDRESS": "2700 Austin Street", "CITY": "West Orange", "STATE": "TX", "ZIPCODE": "77630", "GNIS_ID": "2334352", "FOOT_ID": " ", "COMPLEX_ID": null, "GLOBALID": "{D95B9F25-3A62-4D56-B33F-10B33CF974B4}" }, "geometry": { "type": "Point", "coordinates": [ -93.761145639651787, 30.084902005566537 ] } },
{ "type": "Feature", "properties": { "OBJECTID": 29, "PERMANENT_IDENTIFIER": "{A4847625-A97A-4571-B13F-85E7D3923DFE}", "SOURCE_FEATUREID": null, "SOURCE_DATASETID": "{43CAF7AD-177F-413D-90DA-C94E9789FEC8}", "SOURCE_DATADESC": "NSD TNMC VWE Database Build - Reviewed features", "SOURCE_ORIGINATOR": "U.S. Geological Survey", "DATA_SECURITY": 5, "DISTRIBUTION_POLICY": "E4", "LOADDATE": "2012\/02\/27 13:53:49", "FTYPE": 740, "FCODE": 74026, "NAME": "Beaumont Fire and Rescue Station 9", "ISLANDMARK": 2, "POINTLOCATIONTYPE": 1, "ADMINTYPE": null, "ADDRESSBUILDINGNAME": " ", "ADDRESS": "7010 Gladys Avenue", "CITY": "Beaumont", "STATE": "TX", "ZIPCODE": "77706", "GNIS_ID": "2655668", "FOOT_ID": null, "COMPLEX_ID": null, "GLOBALID": "{9D56571D-0F30-4434-A23D-026874B74415}" }, "geometry": { "type": "Point", "coordinates": [ -94.181026310744684, 30.09161190682951 ] } },
{ "type": "Feature", "properties": { "OBJECTID": 30, "PERMANENT_IDENTIFIER": "{9C9C8A07-F803-4C5B-83B0-5071DEFF80BC}", "SOURCE_FEATUREID": null, "SOURCE_DATASETID": "{43CAF7AD-177F-413D-90DA-C94E9789FEC8}", "SOURCE_DATADESC": "NSD TNMC VWE Database Build - Reviewed features", "SOURCE_ORIGINATOR": "U.S. Geological Survey", "DATA_SECURITY": 5, "DISTRIBUTION_POLICY": "E4", "LOADDATE": "2012\/02\/27 13:53:49", "FTYPE": 740, "FCODE": 74026, "NAME": "Kirbyville Volunteer Fire Department", "ISLANDMARK": 2, "POINTLOCATIONTYPE": 4, "ADMINTYPE": null, "ADDRESSBUILDINGNAME": " ", "ADDRESS": "110 East Lavielle Street", "CITY": "Kirbyville", "STATE": "TX", "ZIPCODE": "75956", "GNIS_ID": "2655373", "FOOT_ID": null, "COMPLEX_ID": null, "GLOBALID": "{53F08096-D7A8-4055-802C-08EAD7655E0D}" }, "geometry": { "type": "Point", "coordinates": [ -93.893471363521257, 30.659977834584957 ] } },
{ "type": "Feature", "properties": { "OBJECTID": 31, "PERMANENT_IDENTIFIER": "{4DFBA62D-6DBA-4FC6-936D-DA683137020D}", "SOURCE_FEATUREID": null, "SOURCE_DATASETID": "{43CAF7AD-177F-413D-90DA-C94E9789FEC8}", "SOURCE_DATADESC": "NSD TNMC VWE Database Build - Reviewed features", "SOURCE_ORIGINATOR": "U.S. Geological Survey", "DATA_SECURITY": 5, "DISTRIBUTION_POLICY": "E4", "LOADDATE": "2012\/02\/27 13:53:49", "FTYPE": 740, "FCODE": 74026, "NAME": "Moss Bluff Volunteer Fire Department Station 1", "ISLANDMARK": 2, "POINTLOCATIONTYPE": 4, "ADMINTYPE": null, "ADDRESSBUILDINGNAME": " ", "ADDRESS": "49 County Road 133 South", "CITY": "Moss Bluff", "STATE": "TX", "ZIPCODE": "77575", "GNIS_ID": "2655654", "FOOT_ID": null, "COMPLEX_ID": null, "GLOBALID": "{27E53828-BB2A-488B-A51F-189B721F3F18}" }, "geometry": { "type": "Point", "coordinates": [ -94.708538441653118, 29.942403758381978 ] } },
{ "type": "Feature", "properties": { "OBJECTID": 32, "PERMANENT_IDENTIFIER": "eb974402-0b02-4f36-9b95-f984d3179ddf", "SOURCE_FEATUREID": "TX001154", "SOURCE_DATASETID": "{43CAF7AD-177F-413D-90DA-C94E9789FEC8}", "SOURCE_DATADESC": "NSD TNMC VWE Database Build - Reviewed features", "SOURCE_ORIGINATOR": "U.S. Geological Survey", "DATA_SECURITY": 5, "DISTRIBUTION_POLICY": "E4", "LOADDATE": "2012\/02\/27 13:53:49", "FTYPE": 740, "FCODE": 74026, "NAME": "Pinewood Volunteer Fire Department", "ISLANDMARK": 2, "POINTLOCATIONTYPE": 1, "ADMINTYPE": 6, "ADDRESSBUILDINGNAME": " ", "ADDRESS": "333 Commercial Drive", "CITY": "Sour Lake", "STATE": "TX", "ZIPCODE": "77659", "GNIS_ID": "2334523", "FOOT_ID": " ", "COMPLEX_ID": null, "GLOBALID": "{676C318D-EF80-44A7-AAC4-41F0BB80DF68}" }, "geometry": { "type": "Point", "coordinates": [ -94.31738102807077, 30.149739096494677 ] } },
{ "type": "Feature", "properties": { "OBJECTID": 33, "PERMANENT_IDENTIFIER": "9576ecf2-88f9-4984-a036-3db63134b958", "SOURCE_FEATUREID": "10415560", "SOURCE_DATASETID": "{43CAF7AD-177F-413D-90DA-C94E9789FEC8}", "SOURCE_DATADESC": "NSD TNMC VWE Database Build - Reviewed features", "SOURCE_ORIGINATOR": "U.S. Geological Survey", "DATA_SECURITY": 5, "DISTRIBUTION_POLICY": "E4", "LOADDATE": "2012\/02\/27 13:53:49", "FTYPE": 740, "FCODE": 74026, "NAME": "Pineland Volunteer Fire Department", "ISLANDMARK": 0, "POINTLOCATIONTYPE": 1, "ADMINTYPE": 0, "ADDRESSBUILDINGNAME": " ", "ADDRESS": "205 Temple Avenue South", "CITY": "Pineland", "STATE": "TX", "ZIPCODE": "75968", "GNIS_ID": "2655179", "FOOT_ID": " ", "COMPLEX_ID": null, "GLOBALID": "{4C806BE3-874B-4953-9406-D6A4C1671FDB}" }, "geometry": { "type": "Point", "coordinates": [ -93.973441603562435, 31.249131301017886 ] } },
{ "type": "Feature", "properties": { "OBJECTID": 34, "PERMANENT_IDENTIFIER": "3bbb8c8c-62d9-4b33-9f8b-9a4eb404745a", "SOURCE_FEATUREID": "10407677", "SOURCE_DATASETID": "{43CAF7AD-177F-413D-90DA-C94E9789FEC8}", "SOURCE_DATADESC": "NSD TNMC VWE Database Build - Reviewed features", "SOURCE_ORIGINATOR": "U.S. Geological Survey", "DATA_SECURITY": 5, "DISTRIBUTION_POLICY": "E4", "LOADDATE": "2012\/02\/27 13:53:49", "FTYPE": 740, "FCODE": 74026, "NAME": "Anahuac Volunteer Fire Department", "ISLANDMARK": 2, "POINTLOCATIONTYPE": 4, "ADMINTYPE": 6, "ADDRESSBUILDINGNAME": " ", "ADDRESS": "510 Miller Road", "CITY": "Anahuac", "STATE": "TX", "ZIPCODE": "77514", "GNIS_ID": "2334441", "FOOT_ID": " ", "COMPLEX_ID": null, "GLOBALID": "{E1BC16D0-17E4-449B-8AEF-23CE5F6BA124}" }, "geometry": { "type": "Point", "coordinates": [ -94.681432421148543, 29.773233900648137 ] } },
{ "type": "Feature", "properties": { "OBJECTID": 35, "PERMANENT_IDENTIFIER": "69b1a2a4-c478-43dd-8fe0-38e48605c0fb", "SOURCE_FEATUREID": "10165463", "SOURCE_DATASETID": "{43CAF7AD-177F-413D-90DA-C94E9789FEC8}", "SOURCE_DATADESC": "NSD TNMC VWE Database Build - Reviewed features", "SOURCE_ORIGINATOR": "U.S. Geological Survey", "DATA_SECURITY": 5, "DISTRIBUTION_POLICY": "E4", "LOADDATE": "2012\/02\/27 13:53:49", "FTYPE": 740, "FCODE": 74026, "NAME": "Hamshire Volunteer Fire Department", "ISLANDMARK": 2, "POINTLOCATIONTYPE": 4, "ADMINTYPE": 6, "ADDRESSBUILDINGNAME": " ", "ADDRESS": "12393 2nd Street", "CITY": "Hamshire", "STATE": "TX", "ZIPCODE": "77622", "GNIS_ID": "2334359", "FOOT_ID": " ", "COMPLEX_ID": null, "GLOBALID": "{A273B532-64C7-4086-A5C4-372B9BCF1E80}" }, "geometry": { "type": "Point", "coordinates": [ -94.310774583011053, 29.861845381135115 ] } },
{ "type": "Feature", "properties": { "OBJECTID": 36, "PERMANENT_IDENTIFIER": "7976f7bd-6e35-47d3-90fc-391aba5774ad", "SOURCE_FEATUREID": "10410131", "SOURCE_DATASETID": "{43CAF7AD-177F-413D-90DA-C94E9789FEC8}", "SOURCE_DATADESC": "NSD TNMC VWE Database Build - Reviewed features", "SOURCE_ORIGINATOR": "U.S. Geological Survey", "DATA_SECURITY": 5, "DISTRIBUTION_POLICY": "E4", "LOADDATE": "2012\/02\/27 13:53:49", "FTYPE": 740, "FCODE": 74026, "NAME": "Wildwood Volunteer Fire Department", "ISLANDMARK": 2, "POINTLOCATIONTYPE": 4, "ADMINTYPE": 6, "ADDRESSBUILDINGNAME": " ", "ADDRESS": "Wildwood Drive", "CITY": "Kountze", "STATE": "TX", "ZIPCODE": "77625", "GNIS_ID": "2334798", "FOOT_ID": " ", "COMPLEX_ID": null, "GLOBALID": "{BE156F8A-9706-4FFF-AC76-150B5AEE4CBD}" }, "geometry": { "type": "Point", "coordinates": [ -94.442084362599843, 30.524480224057243 ] } },
{ "type": "Feature", "properties": { "OBJECTID": 37, "PERMANENT_IDENTIFIER": "{E1D752BF-52D8-4C0D-9691-583655271983}", "SOURCE_FEATUREID": null, "SOURCE_DATASETID": "{43CAF7AD-177F-413D-90DA-C94E9789FEC8}", "SOURCE_DATADESC": "NSD TNMC VWE Database Build - Reviewed features", "SOURCE_ORIGINATOR": "U.S. Geological Survey", "DATA_SECURITY": 5, "DISTRIBUTION_POLICY": "E4", "LOADDATE": "2012\/02\/27 13:53:49", "FTYPE": 740, "FCODE": 74026, "NAME": "Livingston Volunteer Fire Department Station 3", "ISLANDMARK": 2, "POINTLOCATIONTYPE": 4, "ADMINTYPE": null, "ADDRESSBUILDINGNAME": " ", "ADDRESS": "2007 South Houston Avenue", "CITY": "Livingston", "STATE": "TX", "ZIPCODE": "77351", "GNIS_ID": "2655425", "FOOT_ID": null, "COMPLEX_ID": null, "GLOBALID": "{2AC04DBF-F14B-47A9-8E8B-8118E1D420D9}" }, "geometry": { "type": "Point", "coordinates": [ -94.91613382980411, 30.690692003787234 ] } },
{ "type": "Feature", "properties": { "OBJECTID": 38, "PERMANENT_IDENTIFIER": "1508879e-2277-474d-b5fc-43f73f709e3e", "SOURCE_FEATUREID": "TX000401", "SOURCE_DATASETID": "{43CAF7AD-177F-413D-90DA-C94E9789FEC8}", "SOURCE_DATADESC": "NSD TNMC VWE Database Build - Reviewed features", "SOURCE_ORIGINATOR": "U.S. Geological Survey", "DATA_SECURITY": 5, "DISTRIBUTION_POLICY": "E4", "LOADDATE": "2012\/02\/27 13:53:49", "FTYPE": 740, "FCODE": 74026, "NAME": "Nome Fire Department", "ISLANDMARK": 2, "POINTLOCATIONTYPE": 1, "ADMINTYPE": 6, "ADDRESSBUILDINGNAME": " ", "ADDRESS": "1759 2nd Street", "CITY": "Nome", "STATE": "TX", "ZIPCODE": "77629", "GNIS_ID": "2334462", "FOOT_ID": " ", "COMPLEX_ID": null, "GLOBALID": "{8E139CA0-160A-4767-AA44-3C7E519F722D}" }, "geometry": { "type": "Point", "coordinates": [ -94.421768841176913, 30.032276447261744 ] } },
{ "type": "Feature", "properties": { "OBJECTID": 39, "PERMANENT_IDENTIFIER": "{BEE2057B-C9F6-445E-8BEF-8F2488100364}", "SOURCE_FEATUREID": null, "SOURCE_DATASETID": "{43CAF7AD-177F-413D-90DA-C94E9789FEC8}", "SOURCE_DATADESC": "NSD TNMC VWE Database Build - Reviewed features", "SOURCE_ORIGINATOR": "U.S. Geological Survey", "DATA_SECURITY": 5, "DISTRIBUTION_POLICY": "E4", "LOADDATE": "2012\/02\/27 13:53:49", "FTYPE": 740, "FCODE": 74026, "NAME": "Kenefick Volunteer Fire and Rescue", "ISLANDMARK": 2, "POINTLOCATIONTYPE": 1, "ADMINTYPE": null, "ADDRESSBUILDINGNAME": " ", "ADDRESS": "3709 Farm to Market Road 1008", "CITY": "Dayton", "STATE": "TX", "ZIPCODE": "77535", "GNIS_ID": "2655514", "FOOT_ID": null, "COMPLEX_ID": null, "GLOBALID": "{E6EE685D-F8D5-432C-8B1F-9183A9D30DB4}" }, "geometry": { "type": "Point", "coordinates": [ -94.859162687061655, 30.106021286402537 ] } },
{ "type": "Feature", "properties": { "OBJECTID": 40, "PERMANENT_IDENTIFIER": "3fb693ea-a718-476a-89d5-8319dddcf305", "SOURCE_FEATUREID": "10142757", "SOURCE_DATASETID": "{43CAF7AD-177F-413D-90DA-C94E9789FEC8}", "SOURCE_DATADESC": "NSD TNMC VWE Database Build - Reviewed features", "SOURCE_ORIGINATOR": "U.S. Geological Survey", "DATA_SECURITY": 5, "DISTRIBUTION_POLICY": "E4", "LOADDATE": "2012\/02\/27 13:53:49", "FTYPE": 740, "FCODE": 74026, "NAME": "Buna Fire Department", "ISLANDMARK": 2, "POINTLOCATIONTYPE": 1, "ADMINTYPE": 6, "ADDRESSBUILDINGNAME": " ", "ADDRESS": "480 State Highway 62", "CITY": "Buna", "STATE": "TX", "ZIPCODE": "77612", "GNIS_ID": "2334453", "FOOT_ID": " ", "COMPLEX_ID": null, "GLOBALID": "{214000D6-B817-4A6B-AF04-B81633972BA1}" }, "geometry": { "type": "Point", "coordinates": [ -93.965514210131943, 30.437331937679918 ] } },
{ "type": "Feature", "properties": { "OBJECTID": 41, "PERMANENT_IDENTIFIER": "{2D624304-D0D6-4CF6-A4CE-A920D6554C3B}", "SOURCE_FEATUREID": null, "SOURCE_DATASETID": "{43CAF7AD-177F-413D-90DA-C94E9789FEC8}", "SOURCE_DATADESC": "NSD TNMC VWE Database Build - Reviewed features", "SOURCE_ORIGINATOR": "U.S. Geological Survey", "DATA_SECURITY": 5, "DISTRIBUTION_POLICY": "E4", "LOADDATE": "2012\/02\/27 13:53:49", "FTYPE": 740, "FCODE": 74026, "NAME": "Texas Forest Service Jasper Office", "ISLANDMARK": 2, "POINTLOCATIONTYPE": 4, "ADMINTYPE": null, "ADDRESSBUILDINGNAME": " ", "ADDRESS": "524 South Wheeler Street", "CITY": "Jasper", "STATE": "TX", "ZIPCODE": "75951", "GNIS_ID": "2655579", "FOOT_ID": null, "COMPLEX_ID": null, "GLOBALID": "{4BC1AF43-A1D7-4A64-B085-36F552E43DE2}" }, "geometry": { "type": "Point", "coordinates": [ -93.996354402406752, 30.915526182550394 ] } },
{ "type": "Feature", "properties": { "OBJECTID": 42, "PERMANENT_IDENTIFIER": "78949aab-f214-4c66-b798-f7c10ae27ffb", "SOURCE_FEATUREID": "10139076", "SOURCE_DATASETID": "{43CAF7AD-177F-413D-90DA-C94E9789FEC8}", "SOURCE_DATADESC": "NSD TNMC VWE Database Build - Reviewed features", "SOURCE_ORIGINATOR": "U.S. Geological Survey", "DATA_SECURITY": 5, "DISTRIBUTION_POLICY": "E4", "LOADDATE": "2012\/02\/27 13:53:49", "FTYPE": 740, "FCODE": 74026, "NAME": "Little Cypress Fire \/ Rescue Department Station 2", "ISLANDMARK": 2, "POINTLOCATIONTYPE": 1, "ADMINTYPE": 6, "ADDRESSBUILDINGNAME": " ", "ADDRESS": "13418 State Highway 87 North", "CITY": "Orange", "STATE": "TX", "ZIPCODE": "77632", "GNIS_ID": "2334364", "FOOT_ID": " ", "COMPLEX_ID": null, "GLOBALID": "{8258C610-92F4-4685-B48E-9A9DF4836C7C}" }, "geometry": { "type": "Point", "coordinates": [ -93.76899508716339, 30.236105683370653 ] } },
{ "type": "Feature", "properties": { "OBJECTID": 43, "PERMANENT_IDENTIFIER": "87302cd8-3257-4617-a036-b3214f0a300e", "SOURCE_FEATUREID": "10144753", "SOURCE_DATASETID": "{43CAF7AD-177F-413D-90DA-C94E9789FEC8}", "SOURCE_DATADESC": "NSD TNMC VWE Database Build - Reviewed features", "SOURCE_ORIGINATOR": "U.S. Geological Survey", "DATA_SECURITY": 5, "DISTRIBUTION_POLICY": "E4", "LOADDATE": "2012\/02\/27 13:53:49", "FTYPE": 740, "FCODE": 74026, "NAME": "Riverside Volunteer Fire Department", "ISLANDMARK": 0, "POINTLOCATIONTYPE": 1, "ADMINTYPE": 0, "ADDRESSBUILDINGNAME": " ", "ADDRESS": "6 Walker Street", "CITY": "Riverside", "STATE": "TX", "ZIPCODE": "77367", "GNIS_ID": "2655330", "FOOT_ID": " ", "COMPLEX_ID": null, "GLOBALID": "{6B9B6294-E0D7-429C-A931-8F64F5A1635B}" }, "geometry": { "type": "Point", "coordinates": [ -95.40056756657124, 30.852037200529562 ] } },
{ "type": "Feature", "properties": { "OBJECTID": 44, "PERMANENT_IDENTIFIER": "{91BD6466-4681-43D0-BAB1-5FDB5FF54EBB}", "SOURCE_FEATUREID": null, "SOURCE_DATASETID": "{43CAF7AD-177F-413D-90DA-C94E9789FEC8}", "SOURCE_DATADESC": "NSD TNMC VWE Database Build - Reviewed features", "SOURCE_ORIGINATOR": "U.S. Geological Survey", "DATA_SECURITY": 5, "DISTRIBUTION_POLICY": "E4", "LOADDATE": "2012\/02\/27 13:53:49", "FTYPE": 740, "FCODE": 74026, "NAME": "Six Mile Volunteer Fire Department", "ISLANDMARK": 2, "POINTLOCATIONTYPE": 1, "ADMINTYPE": null, "ADDRESSBUILDINGNAME": " ", "ADDRESS": "9200 State Highway 87 South", "CITY": "Hemphill", "STATE": "TX", "ZIPCODE": "75948", "GNIS_ID": "2655506", "FOOT_ID": null, "COMPLEX_ID": null, "GLOBALID": "{6F09BAD5-E9D8-4546-AEC8-508B8379297C}" }, "geometry": { "type": "Point", "coordinates": [ -93.779356162225639, 31.250383859530633 ] } },
{ "type": "Feature", "properties": { "OBJECTID": 45, "PERMANENT_IDENTIFIER": "{3C15F541-AC56-44E2-9527-FF5397692ABA}", "SOURCE_FEATUREID": null, "SOURCE_DATASETID": "{43CAF7AD-177F-413D-90DA-C94E9789FEC8}", "SOURCE_DATADESC": "NSD TNMC VWE Database Build - Reviewed features", "SOURCE_ORIGINATOR": "U.S. Geological Survey", "DATA_SECURITY": 5, "DISTRIBUTION_POLICY": "E4", "LOADDATE": "2012\/02\/27 13:53:49", "FTYPE": 740, "FCODE": 74026, "NAME": "Point Blank Volunteer Fire Department", "ISLANDMARK": 2, "POINTLOCATIONTYPE": 1, "ADMINTYPE": null, "ADDRESSBUILDINGNAME": " ", "ADDRESS": "30 Cove Road", "CITY": "Pointblank", "STATE": "TX", "ZIPCODE": "77364", "GNIS_ID": "2655525", "FOOT_ID": null, "COMPLEX_ID": null, "GLOBALID": "{531F7D0F-064C-472B-A4A4-6A8B4F26838A}" }, "geometry": { "type": "Point", "coordinates": [ -95.209994908999548, 30.751778205423406 ] } },
{ "type": "Feature", "properties": { "OBJECTID": 46, "PERMANENT_IDENTIFIER": "{54DD2DEA-E1F7-4F32-B43F-C11AEE619DF1}", "SOURCE_FEATUREID": null, "SOURCE_DATASETID": "{43CAF7AD-177F-413D-90DA-C94E9789FEC8}", "SOURCE_DATADESC": "NSD TNMC VWE Database Build - Reviewed features", "SOURCE_ORIGINATOR": "U.S. Geological Survey", "DATA_SECURITY": 5, "DISTRIBUTION_POLICY": "E4", "LOADDATE": "2012\/02\/27 13:53:49", "FTYPE": 740, "FCODE": 74026, "NAME": "Pine Ridge Volunteer Fire Department", "ISLANDMARK": 2, "POINTLOCATIONTYPE": 1, "ADMINTYPE": null, "ADDRESSBUILDINGNAME": " ", "ADDRESS": "14822 Farm to Market Road 421", "CITY": "Kountze", "STATE": "TX", "ZIPCODE": "77625", "GNIS_ID": "2655435", "FOOT_ID": null, "COMPLEX_ID": null, "GLOBALID": "{FEE1A512-0A02-425A-82BD-E0E7F63425E4}" }, "geometry": { "type": "Point", "coordinates": [ -94.370797965730347, 30.198108222103556 ] } },
{ "type": "Feature", "properties": { "OBJECTID": 47, "PERMANENT_IDENTIFIER": "{F86AC949-C3BC-487C-AE63-F2E9FDD6E4BB}", "SOURCE_FEATUREID": null, "SOURCE_DATASETID": "{43CAF7AD-177F-413D-90DA-C94E9789FEC8}", "SOURCE_DATADESC": "NSD TNMC VWE Database Build - Reviewed features", "SOURCE_ORIGINATOR": "U.S. Geological Survey", "DATA_SECURITY": 5, "DISTRIBUTION_POLICY": "E4", "LOADDATE": "2012\/02\/27 13:53:49", "FTYPE": 740, "FCODE": 74026, "NAME": "Port Arthur Fire Department Station Number 6", "ISLANDMARK": 2, "POINTLOCATIONTYPE": 1, "ADMINTYPE": null, "ADDRESSBUILDINGNAME": " ", "ADDRESS": "3300 Memorial Boulevard", "CITY": "Port Arthur", "STATE": "TX", "ZIPCODE": "77640", "GNIS_ID": "2655445", "FOOT_ID": null, "COMPLEX_ID": null, "GLOBALID": "{3100076B-3B3B-4DAE-AABC-E27052204C43}" }, "geometry": { "type": "Point", "coordinates": [ -93.942993341754473, 29.909613777725738 ] } },
{ "type": "Feature", "properties": { "OBJECTID": 48, "PERMANENT_IDENTIFIER": "58f3b02b-05b4-491a-871f-7584c3682916", "SOURCE_FEATUREID": "10166798", "SOURCE_DATASETID": "{43CAF7AD-177F-413D-90DA-C94E9789FEC8}", "SOURCE_DATADESC": "NSD TNMC VWE Database Build - Reviewed features", "SOURCE_ORIGINATOR": "U.S. Geological Survey", "DATA_SECURITY": 5, "DISTRIBUTION_POLICY": "E4", "LOADDATE": "2012\/02\/27 13:53:49", "FTYPE": 740, "FCODE": 74026, "NAME": "Sour Lake Volunteer Fire Department \/ Hardin County Emergency Services District 5", "ISLANDMARK": 2, "POINTLOCATIONTYPE": 4, "ADMINTYPE": 6, "ADDRESSBUILDINGNAME": " ", "ADDRESS": "711 West 6th Street", "CITY": "Sour Lake", "STATE": "TX", "ZIPCODE": "77659", "GNIS_ID": "2334452", "FOOT_ID": " ", "COMPLEX_ID": null, "GLOBALID": "{AA80BC3E-E294-4EA9-8B93-F9AA3A713AD2}" }, "geometry": { "type": "Point", "coordinates": [ -94.413848201280729, 30.139568382829605 ] } },
{ "type": "Feature", "properties": { "OBJECTID": 49, "PERMANENT_IDENTIFIER": "d793de6d-be0e-4a55-b258-b8cd81bba954", "SOURCE_FEATUREID": "10410529", "SOURCE_DATASETID": "{43CAF7AD-177F-413D-90DA-C94E9789FEC8}", "SOURCE_DATADESC": "NSD TNMC VWE Database Build - Reviewed features", "SOURCE_ORIGINATOR": "U.S. Geological Survey", "DATA_SECURITY": 5, "DISTRIBUTION_POLICY": "E4", "LOADDATE": "2009\/12\/24 07:02:08", "FTYPE": 740, "FCODE": 74026, "NAME": "Midway Volunteer Fire Department", "ISLANDMARK": 2, "POINTLOCATIONTYPE": 4, "ADMINTYPE": null, "ADDRESSBUILDINGNAME": " ", "ADDRESS": "12250 State Highway 21 East", "CITY": "Midway", "STATE": "TX", "ZIPCODE": "75852", "GNIS_ID": "2552467", "FOOT_ID": " ", "COMPLEX_ID": null, "GLOBALID": "{D2E308EC-45FA-47A9-8BBD-9F0B10B99474}" }, "geometry": { "type": "Point", "coordinates": [ -95.748430560949387, 31.027139340076072 ] } },
{ "type": "Feature", "properties": { "OBJECTID": 50, "PERMANENT_IDENTIFIER": "{4B7490D0-93E7-4577-A8AE-B04F2342A909}", "SOURCE_FEATUREID": null, "SOURCE_DATASETID": "{43CAF7AD-177F-413D-90DA-C94E9789FEC8}", "SOURCE_DATADESC": "NSD TNMC VWE Database Build - Reviewed features", "SOURCE_ORIGINATOR": "U.S. Geological Survey", "DATA_SECURITY": 5, "DISTRIBUTION_POLICY": "E4", "LOADDATE": "2012\/02\/27 13:53:49", "FTYPE": 740, "FCODE": 74026, "NAME": "Kountze Volunteer Fire Department Station 3", "ISLANDMARK": 2, "POINTLOCATIONTYPE": 4, "ADMINTYPE": null, "ADDRESSBUILDINGNAME": " ", "ADDRESS": "Farm to Market Road 1003", "CITY": "Kountze", "STATE": "TX", "ZIPCODE": "77625", "GNIS_ID": "2655433", "FOOT_ID": null, "COMPLEX_ID": null, "GLOBALID": "{773FE3DE-F3E3-4E0D-B596-F78C1E8DCE0F}" }, "geometry": { "type": "Point", "coordinates": [ -94.434214691316257, 30.393832160147674 ] } },
{ "type": "Feature", "properties": { "OBJECTID": 51, "PERMANENT_IDENTIFIER": "53a90ad7-2a41-46fb-8c9f-4ab9392e6af2", "SOURCE_FEATUREID": "10415271", "SOURCE_DATASETID": "{43CAF7AD-177F-413D-90DA-C94E9789FEC8}", "SOURCE_DATADESC": "NSD TNMC VWE Database Build - Reviewed features", "SOURCE_ORIGINATOR": "U.S. Geological Survey", "DATA_SECURITY": 5, "DISTRIBUTION_POLICY": "E4", "LOADDATE": "2012\/02\/27 13:53:49", "FTYPE": 740, "FCODE": 74026, "NAME": "Onalaska Volunteer Fire Department", "ISLANDMARK": 0, "POINTLOCATIONTYPE": 1, "ADMINTYPE": 0, "ADDRESSBUILDINGNAME": " ", "ADDRESS": "181 Old Groveton Road South", "CITY": "Onalaska", "STATE": "TX", "ZIPCODE": "77360", "GNIS_ID": "2655278", "FOOT_ID": " ", "COMPLEX_ID": null, "GLOBALID": "{F41EFAB5-7DFD-4784-9C8E-D937A8064065}" }, "geometry": { "type": "Point", "coordinates": [ -95.111219266732022, 30.813673594490172 ] } },
{ "type": "Feature", "properties": { "OBJECTID": 52, "PERMANENT_IDENTIFIER": "{575D8100-F0B3-4BDE-A789-55FE12FDC39B}", "SOURCE_FEATUREID": "10144602", "SOURCE_DATASETID": "{43CAF7AD-177F-413D-90DA-C94E9789FEC8}", "SOURCE_DATADESC": "NSD TNMC VWE Database Build - Reviewed features", "SOURCE_ORIGINATOR": "U.S. Geological Survey", "DATA_SECURITY": 5, "DISTRIBUTION_POLICY": "E4", "LOADDATE": "2012\/02\/27 13:53:49", "FTYPE": 740, "FCODE": 74026, "NAME": "Hardin Volunteer Fire Department", "ISLANDMARK": 2, "POINTLOCATIONTYPE": 1, "ADMINTYPE": 6, "ADDRESSBUILDINGNAME": null, "ADDRESS": "10741 State Highway 146 North", "CITY": "Hardin", "STATE": "TX", "ZIPCODE": "77561", "GNIS_ID": "2334606", "FOOT_ID": null, "COMPLEX_ID": null, "GLOBALID": "{21705688-1055-4CCD-9B49-18FA11C1616A}" }, "geometry": { "type": "Point", "coordinates": [ -94.739477109944318, 30.152049799746472 ] } },
{ "type": "Feature", "properties": { "OBJECTID": 53, "PERMANENT_IDENTIFIER": "{977D15DD-85F7-4625-A96E-E64688B2A5F4}", "SOURCE_FEATUREID": null, "SOURCE_DATASETID": "{43CAF7AD-177F-413D-90DA-C94E9789FEC8}", "SOURCE_DATADESC": "NSD TNMC VWE Database Build - Reviewed features", "SOURCE_ORIGINATOR": "U.S. Geological Survey", "DATA_SECURITY": 5, "DISTRIBUTION_POLICY": "E4", "LOADDATE": "2012\/02\/27 13:53:49", "FTYPE": 740, "FCODE": 74026, "NAME": "Port Arthur Fire Department Station Number 5", "ISLANDMARK": 2, "POINTLOCATIONTYPE": 4, "ADMINTYPE": null, "ADDRESSBUILDINGNAME": " ", "ADDRESS": "6099 Lewis Foster Drive", "CITY": "Port Arthur", "STATE": "TX", "ZIPCODE": "77642", "GNIS_ID": "2655448", "FOOT_ID": null, "COMPLEX_ID": null, "GLOBALID": "{208E1FCD-08D1-4780-B566-747E63823FCA}" }, "geometry": { "type": "Point", "coordinates": [ -93.893798929698036, 29.925989882791324 ] } },
{ "type": "Feature", "properties": { "OBJECTID": 54, "PERMANENT_IDENTIFIER": "f7f46ad2-6f02-4231-91d8-a6b3a65fbb5c", "SOURCE_FEATUREID": "10415577", "SOURCE_DATASETID": "{43CAF7AD-177F-413D-90DA-C94E9789FEC8}", "SOURCE_DATADESC": "NSD TNMC VWE Database Build - Reviewed features", "SOURCE_ORIGINATOR": "U.S. Geological Survey", "DATA_SECURITY": 5, "DISTRIBUTION_POLICY": "E4", "LOADDATE": "2012\/02\/27 13:53:49", "FTYPE": 740, "FCODE": 74026, "NAME": "San Augustine Volunteer Fire Department", "ISLANDMARK": 0, "POINTLOCATIONTYPE": 1, "ADMINTYPE": 0, "ADDRESSBUILDINGNAME": " ", "ADDRESS": "301 South Harrison Street", "CITY": "San Augustine", "STATE": "TX", "ZIPCODE": "75972", "GNIS_ID": "2655187", "FOOT_ID": " ", "COMPLEX_ID": null, "GLOBALID": "{49F1D8EE-9577-4746-A15D-A91A2DC61600}" }, "geometry": { "type": "Point", "coordinates": [ -94.110593984436605, 31.528190169553536 ] } },
{ "type": "Feature", "properties": { "OBJECTID": 55, "PERMANENT_IDENTIFIER": "4c3dc31e-25af-4a49-a158-c21d9b8a53ce", "SOURCE_FEATUREID": "10414117", "SOURCE_DATASETID": "{43CAF7AD-177F-413D-90DA-C94E9789FEC8}", "SOURCE_DATADESC": "NSD TNMC VWE Database Build - Reviewed features", "SOURCE_ORIGINATOR": "U.S. Geological Survey", "DATA_SECURITY": 5, "DISTRIBUTION_POLICY": "E4", "LOADDATE": "2012\/02\/27 13:53:49", "FTYPE": 740, "FCODE": 74026, "NAME": "Mauriceville Volunteer Fire Department", "ISLANDMARK": 2, "POINTLOCATIONTYPE": 4, "ADMINTYPE": 6, "ADDRESSBUILDINGNAME": " ", "ADDRESS": "10691 US Highway 62 North", "CITY": "Orange", "STATE": "TX", "ZIPCODE": "77632", "GNIS_ID": "2334370", "FOOT_ID": " ", "COMPLEX_ID": null, "GLOBALID": "{CBE38340-9BC1-4163-B93D-973565613EFF}" }, "geometry": { "type": "Point", "coordinates": [ -93.866411091519169, 30.194680427737055 ] } },
{ "type": "Feature", "properties": { "OBJECTID": 56, "PERMANENT_IDENTIFIER": "{C8D15849-CAC9-40B5-A64E-F33C29F965AE}", "SOURCE_FEATUREID": null, "SOURCE_DATASETID": "{43CAF7AD-177F-413D-90DA-C94E9789FEC8}", "SOURCE_DATADESC": "NSD TNMC VWE Database Build - Reviewed features", "SOURCE_ORIGINATOR": "U.S. Geological Survey", "DATA_SECURITY": 5, "DISTRIBUTION_POLICY": "E4", "LOADDATE": "2012\/02\/27 13:53:49", "FTYPE": 740, "FCODE": 74026, "NAME": "Warren Volunteer Fire Department", "ISLANDMARK": 2, "POINTLOCATIONTYPE": 4, "ADMINTYPE": null, "ADDRESSBUILDINGNAME": " ", "ADDRESS": "County Road 1550", "CITY": "Warren", "STATE": "TX", "ZIPCODE": "77664", "GNIS_ID": "2655626", "FOOT_ID": null, "COMPLEX_ID": null, "GLOBALID": "{39F0CE95-6383-4D8A-A14A-1A49EC98AF43}" }, "geometry": { "type": "Point", "coordinates": [ -94.405217394643429, 30.609106305543644 ] } },
{ "type": "Feature", "properties": { "OBJECTID": 57, "PERMANENT_IDENTIFIER": "2b93d157-9d8b-4faf-944d-97b3970551c2", "SOURCE_FEATUREID": "10165339", "SOURCE_DATASETID": "{43CAF7AD-177F-413D-90DA-C94E9789FEC8}", "SOURCE_DATADESC": "NSD TNMC VWE Database Build - Reviewed features", "SOURCE_ORIGINATOR": "U.S. Geological Survey", "DATA_SECURITY": 5, "DISTRIBUTION_POLICY": "E4", "LOADDATE": "2012\/02\/27 13:53:49", "FTYPE": 740, "FCODE": 74026, "NAME": "Labelle - Fannett Volunteer Fire Department \/ Emergency Medical Services", "ISLANDMARK": 2, "POINTLOCATIONTYPE": 1, "ADMINTYPE": 6, "ADDRESSBUILDINGNAME": " ", "ADDRESS": "18769 Farm to Market Road 365", "CITY": "Beaumont", "STATE": "TX", "ZIPCODE": "77705", "GNIS_ID": "2334397", "FOOT_ID": " ", "COMPLEX_ID": null, "GLOBALID": "{EAD4AAA8-3DDA-41AB-B9F6-ECA085AE8DF3}" }, "geometry": { "type": "Point", "coordinates": [ -94.245059804333309, 29.922890823107817 ] } },
{ "type": "Feature", "properties": { "OBJECTID": 58, "PERMANENT_IDENTIFIER": "3efdd491-99a2-4237-9fe1-ca113d143797", "SOURCE_FEATUREID": "10415557", "SOURCE_DATASETID": "{43CAF7AD-177F-413D-90DA-C94E9789FEC8}", "SOURCE_DATADESC": "NSD TNMC VWE Database Build - Reviewed features", "SOURCE_ORIGINATOR": "U.S. Geological Survey", "DATA_SECURITY": 5, "DISTRIBUTION_POLICY": "E4", "LOADDATE": "2012\/02\/27 13:53:49", "FTYPE": 740, "FCODE": 74026, "NAME": "Rosevine Volunteer Fire Department", "ISLANDMARK": 0, "POINTLOCATIONTYPE": 4, "ADMINTYPE": 0, "ADDRESSBUILDINGNAME": " ", "ADDRESS": "8075 Gravelhill Road", "CITY": "Bronson", "STATE": "TX", "ZIPCODE": "75930", "GNIS_ID": "2655308", "FOOT_ID": " ", "COMPLEX_ID": null, "GLOBALID": "{E3F77CC9-11D1-42FC-BA89-5C6607132F4B}" }, "geometry": { "type": "Point", "coordinates": [ -93.976223063464857, 31.420203145410245 ] } },
{ "type": "Feature", "properties": { "OBJECTID": 59, "PERMANENT_IDENTIFIER": "5b77b13f-3a28-480f-b152-7aac05df5d4e", "SOURCE_FEATUREID": "10164993", "SOURCE_DATASETID": "{43CAF7AD-177F-413D-90DA-C94E9789FEC8}", "SOURCE_DATADESC": "NSD TNMC VWE Database Build - Reviewed features", "SOURCE_ORIGINATOR": "U.S. Geological Survey", "DATA_SECURITY": 5, "DISTRIBUTION_POLICY": "E4", "LOADDATE": "2012\/02\/27 13:53:49", "FTYPE": 740, "FCODE": 74026, "NAME": "Liberty City Volunteer Fire Department", "ISLANDMARK": 2, "POINTLOCATIONTYPE": 1, "ADMINTYPE": 6, "ADDRESSBUILDINGNAME": " ", "ADDRESS": "1912 Lakeland Drive", "CITY": "Liberty", "STATE": "TX", "ZIPCODE": "77575", "GNIS_ID": "2334459", "FOOT_ID": " ", "COMPLEX_ID": null, "GLOBALID": "{604DFFA2-510F-4633-A207-C4CD2C27D3F7}" }, "geometry": { "type": "Point", "coordinates": [ -94.77875964859804, 30.074443232063071 ] } },
{ "type": "Feature", "properties": { "OBJECTID": 60, "PERMANENT_IDENTIFIER": "dc653778-2c4e-46ec-adcb-b6a60a34a1af", "SOURCE_FEATUREID": "10414071", "SOURCE_DATASETID": "{43CAF7AD-177F-413D-90DA-C94E9789FEC8}", "SOURCE_DATADESC": "NSD TNMC VWE Database Build - Reviewed features", "SOURCE_ORIGINATOR": "U.S. Geological Survey", "DATA_SECURITY": 5, "DISTRIBUTION_POLICY": "E4", "LOADDATE": "2012\/02\/27 13:53:49", "FTYPE": 740, "FCODE": 74026, "NAME": "Pinehurst Volunteer Fire Department", "ISLANDMARK": 2, "POINTLOCATIONTYPE": 4, "ADMINTYPE": 6, "ADDRESSBUILDINGNAME": " ", "ADDRESS": "3640 Mockingbird Street", "CITY": "Orange", "STATE": "TX", "ZIPCODE": "77630", "GNIS_ID": "2334433", "FOOT_ID": " ", "COMPLEX_ID": null, "GLOBALID": "{E917CD07-5F55-4DAF-8925-E7697AA468D8}" }, "geometry": { "type": "Point", "coordinates": [ -93.775926224689286, 30.104269306632876 ] } },
{ "type": "Feature", "properties": { "OBJECTID": 61, "PERMANENT_IDENTIFIER": "c8dd4d08-17ef-4281-8a16-3aa898d2855c", "SOURCE_FEATUREID": "TX001156", "SOURCE_DATASETID": "{43CAF7AD-177F-413D-90DA-C94E9789FEC8}", "SOURCE_DATADESC": "NSD TNMC VWE Database Build - Reviewed features", "SOURCE_ORIGINATOR": "U.S. Geological Survey", "DATA_SECURITY": 5, "DISTRIBUTION_POLICY": "E4", "LOADDATE": "2012\/02\/27 13:53:49", "FTYPE": 740, "FCODE": 74026, "NAME": "Newton City Fire Department", "ISLANDMARK": 0, "POINTLOCATIONTYPE": 1, "ADMINTYPE": 0, "ADDRESSBUILDINGNAME": " ", "ADDRESS": "East Court and South Houston Street", "CITY": "Newton", "STATE": "TX", "ZIPCODE": "75966", "GNIS_ID": "2655171", "FOOT_ID": " ", "COMPLEX_ID": null, "GLOBALID": "{A06D3DC5-137B-4D4C-A9FD-555A8FC01FB5}" }, "geometry": { "type": "Point", "coordinates": [ -93.754508661753889, 30.84549120666022 ] } },
{ "type": "Feature", "properties": { "OBJECTID": 62, "PERMANENT_IDENTIFIER": "7e5c54e1-3fc9-4a92-a931-a1beb09e3d5b", "SOURCE_FEATUREID": "10410530", "SOURCE_DATASETID": "{43CAF7AD-177F-413D-90DA-C94E9789FEC8}", "SOURCE_DATADESC": "NSD TNMC VWE Database Build - Reviewed features", "SOURCE_ORIGINATOR": "U.S. Geological Survey", "DATA_SECURITY": 5, "DISTRIBUTION_POLICY": "E4", "LOADDATE": "2009\/12\/24 07:02:08", "FTYPE": 740, "FCODE": 74026, "NAME": "North Zulch Volunteer Fire Department", "ISLANDMARK": 2, "POINTLOCATIONTYPE": 4, "ADMINTYPE": null, "ADDRESSBUILDINGNAME": " ", "ADDRESS": "Trinity Avenue and State Highway 160 Loop", "CITY": "North Zulch", "STATE": "TX", "ZIPCODE": "77872", "GNIS_ID": "2552472", "FOOT_ID": " ", "COMPLEX_ID": null, "GLOBALID": "{2666E7CD-E932-4062-A108-C0256D018228}" }, "geometry": { "type": "Point", "coordinates": [ -96.109440447121358, 30.916466404692116 ] } },
{ "type": "Feature", "properties": { "OBJECTID": 63, "PERMANENT_IDENTIFIER": "{F7B5C67B-6B53-469D-A246-0E0F604DDCF5}", "SOURCE_FEATUREID": null, "SOURCE_DATASETID": "{43CAF7AD-177F-413D-90DA-C94E9789FEC8}", "SOURCE_DATADESC": "NSD TNMC VWE Database Build - Reviewed features", "SOURCE_ORIGINATOR": "U.S. Geological Survey", "DATA_SECURITY": 5, "DISTRIBUTION_POLICY": "E4", "LOADDATE": "2012\/02\/27 13:53:49", "FTYPE": 740, "FCODE": 74026, "NAME": "Votaw - Thicket Volunteer Fire Department", "ISLANDMARK": 2, "POINTLOCATIONTYPE": 4, "ADMINTYPE": null, "ADDRESSBUILDINGNAME": " ", "ADDRESS": "Farm to Market Road 787", "CITY": "Saratoga", "STATE": "TX", "ZIPCODE": "77585", "GNIS_ID": "2655436", "FOOT_ID": null, "COMPLEX_ID": null, "GLOBALID": "{DEC5E004-3B34-491D-BF1E-9C34AF4C2410}" }, "geometry": { "type": "Point", "coordinates": [ -94.64103254536802, 30.403867354643108 ] } },
{ "type": "Feature", "properties": { "OBJECTID": 64, "PERMANENT_IDENTIFIER": "{96A0480F-98D5-4377-9EA1-9BAF8B422A74}", "SOURCE_FEATUREID": "10410189", "SOURCE_DATASETID": "{43CAF7AD-177F-413D-90DA-C94E9789FEC8}", "SOURCE_DATADESC": "NSD TNMC VWE Database Build - Reviewed features", "SOURCE_ORIGINATOR": "U.S. Geological Survey", "DATA_SECURITY": 5, "DISTRIBUTION_POLICY": "E4", "LOADDATE": "2012\/02\/27 13:53:49", "FTYPE": 740, "FCODE": 74026, "NAME": "Jefferson Volunteer Fire Department", "ISLANDMARK": 2, "POINTLOCATIONTYPE": 4, "ADMINTYPE": 5, "ADDRESSBUILDINGNAME": null, "ADDRESS": "3707 Central Boulevard", "CITY": "Nederland", "STATE": "TX", "ZIPCODE": "77627", "GNIS_ID": "2334600", "FOOT_ID": null, "COMPLEX_ID": null, "GLOBALID": "{4155797C-8F1C-47DC-97F8-516975B84817}" }, "geometry": { "type": "Point", "coordinates": [ -94.02123504981418, 29.99395352659003 ] } },
{ "type": "Feature", "properties": { "OBJECTID": 65, "PERMANENT_IDENTIFIER": "1ec55e25-7693-4ae1-8fc8-26706938c670", "SOURCE_FEATUREID": "10414113", "SOURCE_DATASETID": "{43CAF7AD-177F-413D-90DA-C94E9789FEC8}", "SOURCE_DATADESC": "NSD TNMC VWE Database Build - Reviewed features", "SOURCE_ORIGINATOR": "U.S. Geological Survey", "DATA_SECURITY": 5, "DISTRIBUTION_POLICY": "E4", "LOADDATE": "2012\/02\/27 13:53:49", "FTYPE": 740, "FCODE": 74026, "NAME": "McLewis Volunteer Fire Department", "ISLANDMARK": 2, "POINTLOCATIONTYPE": 4, "ADMINTYPE": 6, "ADDRESSBUILDINGNAME": " ", "ADDRESS": "828 Fish Farm Road", "CITY": "Orange", "STATE": "TX", "ZIPCODE": "77632", "GNIS_ID": "2334445", "FOOT_ID": " ", "COMPLEX_ID": null, "GLOBALID": "{2161E90E-E64D-4195-BB4D-F4CF6C3BF704}" }, "geometry": { "type": "Point", "coordinates": [ -93.819913598015418, 30.121808062472507 ] } },
{ "type": "Feature", "properties": { "OBJECTID": 66, "PERMANENT_IDENTIFIER": "bb66185d-7185-452a-9002-e541b121be4b", "SOURCE_FEATUREID": "10410175", "SOURCE_DATASETID": "{43CAF7AD-177F-413D-90DA-C94E9789FEC8}", "SOURCE_DATADESC": "NSD TNMC VWE Database Build - Reviewed features", "SOURCE_ORIGINATOR": "U.S. Geological Survey", "DATA_SECURITY": 5, "DISTRIBUTION_POLICY": "E4", "LOADDATE": "2012\/02\/27 13:53:49", "FTYPE": 740, "FCODE": 74026, "NAME": "China Volunteer Fire Department", "ISLANDMARK": 2, "POINTLOCATIONTYPE": 4, "ADMINTYPE": 5, "ADDRESSBUILDINGNAME": " ", "ADDRESS": "122 Texas Avenue", "CITY": "China", "STATE": "TX", "ZIPCODE": "77613", "GNIS_ID": "2334432", "FOOT_ID": " ", "COMPLEX_ID": null, "GLOBALID": "{668023A4-DDC3-4FBB-AAFA-70E09A44CC26}" }, "geometry": { "type": "Point", "coordinates": [ -94.336769206947793, 30.049751830415858 ] } },
{ "type": "Feature", "properties": { "OBJECTID": 67, "PERMANENT_IDENTIFIER": "{D73284DC-B532-4963-A3D3-2AF44C629941}", "SOURCE_FEATUREID": null, "SOURCE_DATASETID": "{43CAF7AD-177F-413D-90DA-C94E9789FEC8}", "SOURCE_DATADESC": "NSD TNMC VWE Database Build - Reviewed features", "SOURCE_ORIGINATOR": "U.S. Geological Survey", "DATA_SECURITY": 5, "DISTRIBUTION_POLICY": "E4", "LOADDATE": "2012\/02\/27 13:53:49", "FTYPE": 740, "FCODE": 74026, "NAME": "Shamrock Shores Volunteer Fire Department", "ISLANDMARK": 2, "POINTLOCATIONTYPE": 4, "ADMINTYPE": null, "ADDRESSBUILDINGNAME": " ", "ADDRESS": "125 East Shamrock Drive", "CITY": "Milam", "STATE": "TX", "ZIPCODE": "75959", "GNIS_ID": "2655508", "FOOT_ID": null, "COMPLEX_ID": null, "GLOBALID": "{A14B2578-57E8-4266-959D-DB30FFFCFB0B}" }, "geometry": { "type": "Point", "coordinates": [ -93.785766178072052, 31.522449914061614 ] } },
{ "type": "Feature", "properties": { "OBJECTID": 68, "PERMANENT_IDENTIFIER": "{CE46B3F4-C1E7-4F20-B4D7-57BB42136ECF}", "SOURCE_FEATUREID": null, "SOURCE_DATASETID": "{43CAF7AD-177F-413D-90DA-C94E9789FEC8}", "SOURCE_DATADESC": "NSD TNMC VWE Database Build - Reviewed features", "SOURCE_ORIGINATOR": "U.S. Geological Survey", "DATA_SECURITY": 5, "DISTRIBUTION_POLICY": "E4", "LOADDATE": "2012\/02\/27 13:53:49", "FTYPE": 740, "FCODE": 74026, "NAME": "Dam B Fire Department", "ISLANDMARK": 2, "POINTLOCATIONTYPE": 4, "ADMINTYPE": null, "ADDRESSBUILDINGNAME": " ", "ADDRESS": "2988 Farm to Market Road 92 South", "CITY": "Spurger", "STATE": "TX", "ZIPCODE": "77660", "GNIS_ID": "2655625", "FOOT_ID": null, "COMPLEX_ID": null, "GLOBALID": "{0CEA5452-0DD8-42A1-82EE-D8D4DDBE9A7B}" }, "geometry": { "type": "Point", "coordinates": [ -94.207123251893961, 30.814863954537046 ] } },
{ "type": "Feature", "properties": { "OBJECTID": 69, "PERMANENT_IDENTIFIER": "{D9383237-ED22-4887-9665-C20FD5E31E3C}", "SOURCE_FEATUREID": null, "SOURCE_DATASETID": "{43CAF7AD-177F-413D-90DA-C94E9789FEC8}", "SOURCE_DATADESC": "NSD TNMC VWE Database Build - Reviewed features", "SOURCE_ORIGINATOR": "U.S. Geological Survey", "DATA_SECURITY": 5, "DISTRIBUTION_POLICY": "E4", "LOADDATE": "2012\/02\/27 13:53:49", "FTYPE": 740, "FCODE": 74026, "NAME": "Beaumont Fire and Rescue Station 10", "ISLANDMARK": 2, "POINTLOCATIONTYPE": 4, "ADMINTYPE": null, "ADDRESSBUILDINGNAME": " ", "ADDRESS": "3855 Washington Boulevard", "CITY": "Beaumont", "STATE": "TX", "ZIPCODE": "77705", "GNIS_ID": "2655672", "FOOT_ID": null, "COMPLEX_ID": null, "GLOBALID": "{999E1951-5C5E-4312-A39C-F79DFA08C533}" }, "geometry": { "type": "Point", "coordinates": [ -94.133539197191354, 30.055424901269149 ] } },
{ "type": "Feature", "properties": { "OBJECTID": 70, "PERMANENT_IDENTIFIER": "{217CA27D-836F-4858-9744-44E82E619CCB}", "SOURCE_FEATUREID": null, "SOURCE_DATASETID": "{43CAF7AD-177F-413D-90DA-C94E9789FEC8}", "SOURCE_DATADESC": "NSD TNMC VWE Database Build - Reviewed features", "SOURCE_ORIGINATOR": "U.S. Geological Survey", "DATA_SECURITY": 5, "DISTRIBUTION_POLICY": "E4", "LOADDATE": "2012\/02\/27 13:53:49", "FTYPE": 740, "FCODE": 74026, "NAME": "Texas Forest Service Buna Office", "ISLANDMARK": 2, "POINTLOCATIONTYPE": 4, "ADMINTYPE": null, "ADDRESSBUILDINGNAME": " ", "ADDRESS": "Farm to Market Road 2938", "CITY": "Buna", "STATE": "TX", "ZIPCODE": "77612", "GNIS_ID": "2655593", "FOOT_ID": null, "COMPLEX_ID": null, "GLOBALID": "{AB88738E-7351-4227-9C59-C2742B987C37}" }, "geometry": { "type": "Point", "coordinates": [ -93.935868261552017, 30.388584176189202 ] } },
{ "type": "Feature", "properties": { "OBJECTID": 71, "PERMANENT_IDENTIFIER": "{E38D4000-2755-4849-9DF2-8705D6D0EA7C}", "SOURCE_FEATUREID": null, "SOURCE_DATASETID": "{43CAF7AD-177F-413D-90DA-C94E9789FEC8}", "SOURCE_DATADESC": "NSD TNMC VWE Database Build - Reviewed features", "SOURCE_ORIGINATOR": "U.S. Geological Survey", "DATA_SECURITY": 5, "DISTRIBUTION_POLICY": "E4", "LOADDATE": "2012\/02\/27 13:53:49", "FTYPE": 740, "FCODE": 74026, "NAME": "Texas Forest Service San Augustine Office", "ISLANDMARK": 2, "POINTLOCATIONTYPE": 4, "ADMINTYPE": null, "ADDRESSBUILDINGNAME": " ", "ADDRESS": "873 State Highway 147 South", "CITY": "San Augustine", "STATE": "TX", "ZIPCODE": "75972", "GNIS_ID": "2655659", "FOOT_ID": null, "COMPLEX_ID": null, "GLOBALID": "{309A0286-A536-4D97-A935-CE80AE033957}" }, "geometry": { "type": "Point", "coordinates": [ -94.129648266709054, 31.50662529800179 ] } },
{ "type": "Feature", "properties": { "OBJECTID": 72, "PERMANENT_IDENTIFIER": "{E0900CE9-B7D5-468B-A618-3BE9D61A6FC6}", "SOURCE_FEATUREID": null, "SOURCE_DATASETID": "{43CAF7AD-177F-413D-90DA-C94E9789FEC8}", "SOURCE_DATADESC": "NSD TNMC VWE Database Build - Reviewed features", "SOURCE_ORIGINATOR": "U.S. Geological Survey", "DATA_SECURITY": 5, "DISTRIBUTION_POLICY": "E4", "LOADDATE": "2012\/02\/27 13:53:49", "FTYPE": 740, "FCODE": 74026, "NAME": "Beaumont Fire and Rescue Station 4", "ISLANDMARK": 2, "POINTLOCATIONTYPE": 4, "ADMINTYPE": null, "ADDRESSBUILDINGNAME": " ", "ADDRESS": "1301 West Lucas Drive", "CITY": "Beaumont", "STATE": "TX", "ZIPCODE": "77706", "GNIS_ID": "2655675", "FOOT_ID": null, "COMPLEX_ID": null, "GLOBALID": "{AEBBF452-066B-48E3-B125-B23B5AFA8916}" }, "geometry": { "type": "Point", "coordinates": [ -94.147751573557116, 30.093502020383493 ] } },
{ "type": "Feature", "properties": { "OBJECTID": 73, "PERMANENT_IDENTIFIER": "{462EA8DC-4721-43B7-9F69-734669747C5C}", "SOURCE_FEATUREID": null, "SOURCE_DATASETID": "{43CAF7AD-177F-413D-90DA-C94E9789FEC8}", "SOURCE_DATADESC": "NSD TNMC VWE Database Build - Reviewed features", "SOURCE_ORIGINATOR": "U.S. Geological Survey", "DATA_SECURITY": 5, "DISTRIBUTION_POLICY": "E4", "LOADDATE": "2012\/02\/27 13:53:49", "FTYPE": 740, "FCODE": 74026, "NAME": "Beaumont Fire and Rescue Station 3", "ISLANDMARK": 2, "POINTLOCATIONTYPE": 4, "ADMINTYPE": null, "ADDRESSBUILDINGNAME": " ", "ADDRESS": "805 Woodrow Street", "CITY": "Beaumont", "STATE": "TX", "ZIPCODE": "77705", "GNIS_ID": "2655676", "FOOT_ID": null, "COMPLEX_ID": null, "GLOBALID": "{8C6139EA-B6DE-4C2A-B3BA-EEF8D0F0EABE}" }, "geometry": { "type": "Point", "coordinates": [ -94.090054685489903, 30.04359490037535 ] } },
{ "type": "Feature", "properties": { "OBJECTID": 74, "PERMANENT_IDENTIFIER": "{E85D0EB6-B565-4DF1-9674-B327FD249DD0}", "SOURCE_FEATUREID": null, "SOURCE_DATASETID": "{43CAF7AD-177F-413D-90DA-C94E9789FEC8}", "SOURCE_DATADESC": "NSD TNMC VWE Database Build - Reviewed features", "SOURCE_ORIGINATOR": "U.S. Geological Survey", "DATA_SECURITY": 5, "DISTRIBUTION_POLICY": "E4", "LOADDATE": "2012\/02\/27 13:53:49", "FTYPE": 740, "FCODE": 74026, "NAME": "980 North Volunteer Fire Department", "ISLANDMARK": 2, "POINTLOCATIONTYPE": 4, "ADMINTYPE": null, "ADDRESSBUILDINGNAME": " ", "ADDRESS": "30 Lakeside Drive", "CITY": "Huntsville", "STATE": "TX", "ZIPCODE": "77320", "GNIS_ID": "2655384", "FOOT_ID": null, "COMPLEX_ID": null, "GLOBALID": "{05ACADC7-39EE-49AB-9470-CAD27D9E1AF8}" }, "geometry": { "type": "Point", "coordinates": [ -95.312200340581427, 30.860027423485253 ] } },
{ "type": "Feature", "properties": { "OBJECTID": 75, "PERMANENT_IDENTIFIER": "{07E838BC-B5D6-4798-B56E-3E0248BE35FB}", "SOURCE_FEATUREID": "10410105", "SOURCE_DATASETID": "{43CAF7AD-177F-413D-90DA-C94E9789FEC8}", "SOURCE_DATADESC": "NSD TNMC VWE Database Build - Reviewed features", "SOURCE_ORIGINATOR": "U.S. Geological Survey", "DATA_SECURITY": 5, "DISTRIBUTION_POLICY": "E4", "LOADDATE": "2012\/02\/27 13:53:49", "FTYPE": 740, "FCODE": 74026, "NAME": "Saratoga Volunteer Fire Department", "ISLANDMARK": 2, "POINTLOCATIONTYPE": 1, "ADMINTYPE": 6, "ADDRESSBUILDINGNAME": null, "ADDRESS": "16628 Farm to Market Road 770", "CITY": "Saratoga", "STATE": "TX", "ZIPCODE": "77585", "GNIS_ID": "2334599", "FOOT_ID": null, "COMPLEX_ID": null, "GLOBALID": "{66C88620-6F8C-4C27-A8A9-87F98CC13362}" }, "geometry": { "type": "Point", "coordinates": [ -94.521418705014341, 30.284493296902628 ] } },
{ "type": "Feature", "properties": { "OBJECTID": 76, "PERMANENT_IDENTIFIER": "{BF6525FB-5145-4873-85EF-1E9C3C09FA4B}", "SOURCE_FEATUREID": null, "SOURCE_DATASETID": "{43CAF7AD-177F-413D-90DA-C94E9789FEC8}", "SOURCE_DATADESC": "NSD TNMC VWE Database Build - Reviewed features", "SOURCE_ORIGINATOR": "U.S. Geological Survey", "DATA_SECURITY": 5, "DISTRIBUTION_POLICY": "E4", "LOADDATE": "2012\/02\/27 13:53:49", "FTYPE": 740, "FCODE": 74026, "NAME": "Livingston Volunteer Fire Department Station 2", "ISLANDMARK": 2, "POINTLOCATIONTYPE": 4, "ADMINTYPE": null, "ADDRESSBUILDINGNAME": " ", "ADDRESS": "211 West Feagin Street", "CITY": "Livingston", "STATE": "TX", "ZIPCODE": "77351", "GNIS_ID": "2655424", "FOOT_ID": null, "COMPLEX_ID": null, "GLOBALID": "{5945C8E6-742B-443E-BF97-5A05417F1D22}" }, "geometry": { "type": "Point", "coordinates": [ -94.934476335554436, 30.715325707738007 ] } },
{ "type": "Feature", "properties": { "OBJECTID": 77, "PERMANENT_IDENTIFIER": "{D7BE0DF1-9F26-44ED-8580-28C940458D0E}", "SOURCE_FEATUREID": null, "SOURCE_DATASETID": "{43CAF7AD-177F-413D-90DA-C94E9789FEC8}", "SOURCE_DATADESC": "NSD TNMC VWE Database Build - Reviewed features", "SOURCE_ORIGINATOR": "U.S. Geological Survey", "DATA_SECURITY": 5, "DISTRIBUTION_POLICY": "E4", "LOADDATE": "2012\/02\/27 13:53:49", "FTYPE": 740, "FCODE": 74026, "NAME": "Beaumont Fire and Rescue Station 5", "ISLANDMARK": 2, "POINTLOCATIONTYPE": 4, "ADMINTYPE": null, "ADDRESSBUILDINGNAME": " ", "ADDRESS": "6375 Walden Road", "CITY": "Beaumont", "STATE": "TX", "ZIPCODE": "77707", "GNIS_ID": "2655674", "FOOT_ID": null, "COMPLEX_ID": null, "GLOBALID": "{83474F40-CBCA-4C2A-91A7-666A2F1978D1}" }, "geometry": { "type": "Point", "coordinates": [ -94.166269590351035, 30.038092499678289 ] } },
{ "type": "Feature", "properties": { "OBJECTID": 78, "PERMANENT_IDENTIFIER": "{B575EF24-0D17-4B62-8990-F1AB5F714FF1}", "SOURCE_FEATUREID": null, "SOURCE_DATASETID": "{43CAF7AD-177F-413D-90DA-C94E9789FEC8}", "SOURCE_DATADESC": "NSD TNMC VWE Database Build - Reviewed features", "SOURCE_ORIGINATOR": "U.S. Geological Survey", "DATA_SECURITY": 5, "DISTRIBUTION_POLICY": "E4", "LOADDATE": "2012\/02\/27 13:53:49", "FTYPE": 740, "FCODE": 74026, "NAME": "Pine Prairie Volunteer Fire Department", "ISLANDMARK": 2, "POINTLOCATIONTYPE": 4, "ADMINTYPE": null, "ADDRESSBUILDINGNAME": " ", "ADDRESS": "3 Phil Wood Road", "CITY": "Huntsville", "STATE": "TX", "ZIPCODE": "77320", "GNIS_ID": "2655352", "FOOT_ID": null, "COMPLEX_ID": null, "GLOBALID": "{001F7E78-29C8-48A6-A5E2-5827FFDAB3D5}" }, "geometry": { "type": "Point", "coordinates": [ -95.566703101940718, 30.803267902679053 ] } },
{ "type": "Feature", "properties": { "OBJECTID": 79, "PERMANENT_IDENTIFIER": "{C6E281AC-06C2-40AF-A92F-F70E970D2ED4}", "SOURCE_FEATUREID": null, "SOURCE_DATASETID": "{43CAF7AD-177F-413D-90DA-C94E9789FEC8}", "SOURCE_DATADESC": "NSD TNMC VWE Database Build - Reviewed features", "SOURCE_ORIGINATOR": "U.S. Geological Survey", "DATA_SECURITY": 5, "DISTRIBUTION_POLICY": "E4", "LOADDATE": "2012\/02\/27 13:53:49", "FTYPE": 740, "FCODE": 74026, "NAME": "Pendleton Harbor Volunteer Fire Department", "ISLANDMARK": 2, "POINTLOCATIONTYPE": 1, "ADMINTYPE": null, "ADDRESSBUILDINGNAME": " ", "ADDRESS": "4405 Palo Gaucho Crossing", "CITY": "Milam", "STATE": "TX", "ZIPCODE": "75959", "GNIS_ID": "2655528", "FOOT_ID": null, "COMPLEX_ID": null, "GLOBALID": "{2679F1F0-5A18-4082-8CC1-1472C431258D}" }, "geometry": { "type": "Point", "coordinates": [ -93.780340071684961, 31.427073694973025 ] } },
{ "type": "Feature", "properties": { "OBJECTID": 80, "PERMANENT_IDENTIFIER": "93ef517c-38e8-436f-9add-dc68bf647db6", "SOURCE_FEATUREID": "9999999999", "SOURCE_DATASETID": "{CC44F99C-6658-4584-B606-926E498D5C82}", "SOURCE_DATADESC": "TNMC VWE DB Build - Vol Update", "SOURCE_ORIGINATOR": "U.S. Geological Survey", "DATA_SECURITY": 5, "DISTRIBUTION_POLICY": "E4", "LOADDATE": "2016\/08\/12 12:31:48", "FTYPE": 740, "FCODE": 74026, "NAME": "Port Arthur Fire Department Central Station", "ISLANDMARK": 2, "POINTLOCATIONTYPE": 1, "ADMINTYPE": 6, "ADDRESSBUILDINGNAME": null, "ADDRESS": "300 Waco Avenue", "CITY": "Port Arthur", "STATE": "TX", "ZIPCODE": "77640-6458", "GNIS_ID": "2334790", "FOOT_ID": " ", "COMPLEX_ID": null, "GLOBALID": "{CA9C1305-02EA-437B-8B6D-20654B9C37C0}" }, "geometry": { "type": "Point", "coordinates": [ -93.933466837523795, 29.871983269517642 ] } },
{ "type": "Feature", "properties": { "OBJECTID": 81, "PERMANENT_IDENTIFIER": "5f5b392f-0e26-453f-ab64-3806eb19406e", "SOURCE_FEATUREID": "9999999999", "SOURCE_DATASETID": "{CC44F99C-6658-4584-B606-926E498D5C82}", "SOURCE_DATADESC": "TNMC VWE DB Build - Vol Update", "SOURCE_ORIGINATOR": "U.S. Geological Survey", "DATA_SECURITY": 5, "DISTRIBUTION_POLICY": "E4", "LOADDATE": "2016\/08\/12 12:31:48", "FTYPE": 740, "FCODE": 74026, "NAME": "Madisonville Volunteer Fire Department", "ISLANDMARK": 0, "POINTLOCATIONTYPE": 1, "ADMINTYPE": 0, "ADDRESSBUILDINGNAME": null, "ADDRESS": "1617 East Main Street", "CITY": "Madisonville", "STATE": "TX", "ZIPCODE": "77864", "GNIS_ID": "2552189", "FOOT_ID": " ", "COMPLEX_ID": null, "GLOBALID": "{A4BFE377-9887-41D5-BBBE-E89BAE3C062D}" }, "geometry": { "type": "Point", "coordinates": [ -95.896161094774229, 30.957684619512587 ] } },
{ "type": "Feature", "properties": { "OBJECTID": 82, "PERMANENT_IDENTIFIER": "{C0A1DFE2-3B27-4C22-A350-D0F2DCCA22C1}", "SOURCE_FEATUREID": null, "SOURCE_DATASETID": "{43CAF7AD-177F-413D-90DA-C94E9789FEC8}", "SOURCE_DATADESC": "NSD TNMC VWE Database Build - Reviewed features", "SOURCE_ORIGINATOR": "U.S. Geological Survey", "DATA_SECURITY": 5, "DISTRIBUTION_POLICY": "E4", "LOADDATE": "2012\/02\/27 13:53:49", "FTYPE": 740, "FCODE": 74026, "NAME": "Coldspring Volunteer Fire Department", "ISLANDMARK": 2, "POINTLOCATIONTYPE": 4, "ADMINTYPE": null, "ADDRESSBUILDINGNAME": " ", "ADDRESS": "20 Hill Avenue", "CITY": "Coldspring", "STATE": "TX", "ZIPCODE": "77331", "GNIS_ID": "2655385", "FOOT_ID": null, "COMPLEX_ID": null, "GLOBALID": "{F593899A-E5BD-4050-A6A2-381A43E130CA}" }, "geometry": { "type": "Point", "coordinates": [ -95.128183980517036, 30.594138576760344 ] } },
{ "type": "Feature", "properties": { "OBJECTID": 83, "PERMANENT_IDENTIFIER": "{C624C4E4-C8C9-47F7-BE67-1B98374701BA}", "SOURCE_FEATUREID": null, "SOURCE_DATASETID": "{43CAF7AD-177F-413D-90DA-C94E9789FEC8}", "SOURCE_DATADESC": "NSD TNMC VWE Database Build - Reviewed features", "SOURCE_ORIGINATOR": "U.S. Geological Survey", "DATA_SECURITY": 5, "DISTRIBUTION_POLICY": "E4", "LOADDATE": "2012\/02\/27 13:53:49", "FTYPE": 740, "FCODE": 74026, "NAME": "South Polk County Volunteer Fire Department", "ISLANDMARK": 2, "POINTLOCATIONTYPE": 4, "ADMINTYPE": null, "ADDRESSBUILDINGNAME": " ", "ADDRESS": "3036 Farm to Market Road 2610", "CITY": "Livingston", "STATE": "TX", "ZIPCODE": "77351", "GNIS_ID": "2655428", "FOOT_ID": null, "COMPLEX_ID": null, "GLOBALID": "{195C0C01-853F-47CD-B75E-A38BB413B3A0}" }, "geometry": { "type": "Point", "coordinates": [ -94.82611719813795, 30.518901071745784 ] } },
{ "type": "Feature", "properties": { "OBJECTID": 84, "PERMANENT_IDENTIFIER": "{A5D16B99-2350-4445-A2CC-581A4D929506}", "SOURCE_FEATUREID": null, "SOURCE_DATASETID": "{43CAF7AD-177F-413D-90DA-C94E9789FEC8}", "SOURCE_DATADESC": "NSD TNMC VWE Database Build - Reviewed features", "SOURCE_ORIGINATOR": "U.S. Geological Survey", "DATA_SECURITY": 5, "DISTRIBUTION_POLICY": "E4", "LOADDATE": "2012\/02\/27 13:53:49", "FTYPE": 740, "FCODE": 74026, "NAME": "Bon Wier Volunteer Fire Department", "ISLANDMARK": 2, "POINTLOCATIONTYPE": 4, "ADMINTYPE": null, "ADDRESSBUILDINGNAME": " ", "ADDRESS": "9561 US Highway 190 East", "CITY": "Bon Wier", "STATE": "TX", "ZIPCODE": "75928", "GNIS_ID": "2655500", "FOOT_ID": null, "COMPLEX_ID": null, "GLOBALID": "{1B6B1CB0-F92C-48CB-9600-54E373758557}" }, "geometry": { "type": "Point", "coordinates": [ -93.659997106544395, 30.745045060576231 ] } },
{ "type": "Feature", "properties": { "OBJECTID": 85, "PERMANENT_IDENTIFIER": "{AC755FF5-0178-4316-B865-DC838FBB692D}", "SOURCE_FEATUREID": null, "SOURCE_DATASETID": "{43CAF7AD-177F-413D-90DA-C94E9789FEC8}", "SOURCE_DATADESC": "NSD TNMC VWE Database Build - Reviewed features", "SOURCE_ORIGINATOR": "U.S. Geological Survey", "DATA_SECURITY": 5, "DISTRIBUTION_POLICY": "E4", "LOADDATE": "2012\/02\/27 13:53:49", "FTYPE": 740, "FCODE": 74026, "NAME": "Beaumont Fire and Rescue Station 14", "ISLANDMARK": 2, "POINTLOCATIONTYPE": 4, "ADMINTYPE": null, "ADDRESSBUILDINGNAME": " ", "ADDRESS": "8250 Voth Road", "CITY": "Beaumont", "STATE": "TX", "ZIPCODE": "77708", "GNIS_ID": "2655669", "FOOT_ID": null, "COMPLEX_ID": null, "GLOBALID": "{FF576298-DB81-413A-B685-2DA557393553}" }, "geometry": { "type": "Point", "coordinates": [ -94.182087414233024, 30.153183647829433 ] } },
{ "type": "Feature", "properties": { "OBJECTID": 86, "PERMANENT_IDENTIFIER": "47fe1cf0-6422-48d5-8761-3f414dfde4bd", "SOURCE_FEATUREID": "10410067", "SOURCE_DATASETID": "{43CAF7AD-177F-413D-90DA-C94E9789FEC8}", "SOURCE_DATADESC": "NSD TNMC VWE Database Build - Reviewed features", "SOURCE_ORIGINATOR": "U.S. Geological Survey", "DATA_SECURITY": 5, "DISTRIBUTION_POLICY": "E4", "LOADDATE": "2012\/02\/27 13:53:49", "FTYPE": 740, "FCODE": 74026, "NAME": "Batson Volunteer Fire Department", "ISLANDMARK": 2, "POINTLOCATIONTYPE": 1, "ADMINTYPE": 6, "ADDRESSBUILDINGNAME": " ", "ADDRESS": "Main Street", "CITY": "Batson", "STATE": "TX", "ZIPCODE": "77519", "GNIS_ID": "2334392", "FOOT_ID": " ", "COMPLEX_ID": null, "GLOBALID": "{38EAC3F7-001C-43CD-89A2-5CB33265E1F4}" }, "geometry": { "type": "Point", "coordinates": [ -94.606591910824335, 30.25153715816792 ] } },
{ "type": "Feature", "properties": { "OBJECTID": 87, "PERMANENT_IDENTIFIER": "{10E1CBC4-D10B-4796-8006-D15AF0A80A52}", "SOURCE_FEATUREID": null, "SOURCE_DATASETID": "{43CAF7AD-177F-413D-90DA-C94E9789FEC8}", "SOURCE_DATADESC": "NSD TNMC VWE Database Build - Reviewed features", "SOURCE_ORIGINATOR": "U.S. Geological Survey", "DATA_SECURITY": 5, "DISTRIBUTION_POLICY": "E4", "LOADDATE": "2012\/02\/27 13:53:49", "FTYPE": 740, "FCODE": 74026, "NAME": "Holiday Lake Estates Volunteer Fire Department", "ISLANDMARK": 2, "POINTLOCATIONTYPE": 4, "ADMINTYPE": null, "ADDRESSBUILDINGNAME": " ", "ADDRESS": "224 Drews Landing Road", "CITY": "Goodrich", "STATE": "TX", "ZIPCODE": "77335", "GNIS_ID": "2655422", "FOOT_ID": null, "COMPLEX_ID": null, "GLOBALID": "{87EE1BD2-4FF8-4EAB-A1F1-E97B0BEDBED0}" }, "geometry": { "type": "Point", "coordinates": [ -94.888214215926482, 30.561572378733423 ] } },
{ "type": "Feature", "properties": { "OBJECTID": 88, "PERMANENT_IDENTIFIER": "{1BE43284-7FD2-45F1-9E8D-49F98F2D1A61}", "SOURCE_FEATUREID": null, "SOURCE_DATASETID": "{43CAF7AD-177F-413D-90DA-C94E9789FEC8}", "SOURCE_DATADESC": "NSD TNMC VWE Database Build - Reviewed features", "SOURCE_ORIGINATOR": "U.S. Geological Survey", "DATA_SECURITY": 5, "DISTRIBUTION_POLICY": "E4", "LOADDATE": "2012\/02\/27 13:53:49", "FTYPE": 740, "FCODE": 74026, "NAME": "Huntsville Fire Department Station 3", "ISLANDMARK": 2, "POINTLOCATIONTYPE": 4, "ADMINTYPE": null, "ADDRESSBUILDINGNAME": " ", "ADDRESS": "448 State Highway 75 North", "CITY": "Huntsville", "STATE": "TX", "ZIPCODE": "77320", "GNIS_ID": "2655537", "FOOT_ID": null, "COMPLEX_ID": null, "GLOBALID": "{3526B4C3-6911-4557-8DAC-C268AF042969}" }, "geometry": { "type": "Point", "coordinates": [ -95.582328703419904, 30.736851889045209 ] } },
{ "type": "Feature", "properties": { "OBJECTID": 89, "PERMANENT_IDENTIFIER": "dbb5730f-fe5b-4188-b2e0-da23e6a04a7e", "SOURCE_FEATUREID": "10424741", "SOURCE_DATASETID": "{43CAF7AD-177F-413D-90DA-C94E9789FEC8}", "SOURCE_DATADESC": "NSD TNMC VWE Database Build - Reviewed features", "SOURCE_ORIGINATOR": "U.S. Geological Survey", "DATA_SECURITY": 5, "DISTRIBUTION_POLICY": "E4", "LOADDATE": "2012\/02\/27 13:53:49", "FTYPE": 740, "FCODE": 74026, "NAME": "Moss Bluff Volunteer Fire Department Station 2", "ISLANDMARK": 2, "POINTLOCATIONTYPE": 4, "ADMINTYPE": 6, "ADDRESSBUILDINGNAME": " ", "ADDRESS": "Moss Bluff Road", "CITY": "Moss Bluff", "STATE": "TX", "ZIPCODE": "77575", "GNIS_ID": "2334325", "FOOT_ID": " ", "COMPLEX_ID": null, "GLOBALID": "{E9C0343D-DD6B-4935-AC0A-7D13B2F923CB}" }, "geometry": { "type": "Point", "coordinates": [ -94.750035710164511, 29.958010084112981 ] } },
{ "type": "Feature", "properties": { "OBJECTID": 90, "PERMANENT_IDENTIFIER": "6625d027-8198-4c61-aa39-1d109b9aea15", "SOURCE_FEATUREID": "10165243", "SOURCE_DATASETID": "{43CAF7AD-177F-413D-90DA-C94E9789FEC8}", "SOURCE_DATADESC": "NSD TNMC VWE Database Build - Reviewed features", "SOURCE_ORIGINATOR": "U.S. Geological Survey", "DATA_SECURITY": 5, "DISTRIBUTION_POLICY": "E4", "LOADDATE": "2012\/02\/27 13:53:49", "FTYPE": 740, "FCODE": 74026, "NAME": "Westlake Community Volunteer Fire Department", "ISLANDMARK": 2, "POINTLOCATIONTYPE": 1, "ADMINTYPE": 6, "ADDRESSBUILDINGNAME": " ", "ADDRESS": "8704 Farm to Market Road 1409", "CITY": "Dayton", "STATE": "TX", "ZIPCODE": "77535", "GNIS_ID": "2334797", "FOOT_ID": " ", "COMPLEX_ID": null, "GLOBALID": "{F0267C14-A9C9-4AEA-BBD4-915F05F999DC}" }, "geometry": { "type": "Point", "coordinates": [ -94.843395025105139, 29.945575038941239 ] } },
{ "type": "Feature", "properties": { "OBJECTID": 91, "PERMANENT_IDENTIFIER": "{2039E106-AC89-41C6-B7F3-51F4AEFA4770}", "SOURCE_FEATUREID": null, "SOURCE_DATASETID": "{43CAF7AD-177F-413D-90DA-C94E9789FEC8}", "SOURCE_DATADESC": "NSD TNMC VWE Database Build - Reviewed features", "SOURCE_ORIGINATOR": "U.S. Geological Survey", "DATA_SECURITY": 5, "DISTRIBUTION_POLICY": "E4", "LOADDATE": "2012\/02\/27 13:53:49", "FTYPE": 740, "FCODE": 74026, "NAME": "Thomas Lake Road Volunteer Fire Department", "ISLANDMARK": 2, "POINTLOCATIONTYPE": 1, "ADMINTYPE": null, "ADDRESSBUILDINGNAME": " ", "ADDRESS": "Thomas Lake Road", "CITY": "Huntsville", "STATE": "TX", "ZIPCODE": "77320", "GNIS_ID": "2655498", "FOOT_ID": null, "COMPLEX_ID": null, "GLOBALID": "{3B44ADED-668B-410B-A7EE-615483547DB6}" }, "geometry": { "type": "Point", "coordinates": [ -95.345940749140922, 30.856715421604402 ] } },
{ "type": "Feature", "properties": { "OBJECTID": 92, "PERMANENT_IDENTIFIER": "{D4CF55F8-1631-4AC9-80F4-D125F7C8540D}", "SOURCE_FEATUREID": null, "SOURCE_DATASETID": "{43CAF7AD-177F-413D-90DA-C94E9789FEC8}", "SOURCE_DATADESC": "NSD TNMC VWE Database Build - Reviewed features", "SOURCE_ORIGINATOR": "U.S. Geological Survey", "DATA_SECURITY": 5, "DISTRIBUTION_POLICY": "E4", "LOADDATE": "2012\/02\/27 13:53:49", "FTYPE": 740, "FCODE": 74026, "NAME": "Broaddus Volunteer Fire Department", "ISLANDMARK": 2, "POINTLOCATIONTYPE": 4, "ADMINTYPE": null, "ADDRESSBUILDINGNAME": " ", "ADDRESS": "1009 Farm to Market Road 2558", "CITY": "Broaddus", "STATE": "TX", "ZIPCODE": "75929", "GNIS_ID": "2655379", "FOOT_ID": null, "COMPLEX_ID": null, "GLOBALID": "{C31251F3-37A6-4C75-9793-7DB98FF38203}" }, "geometry": { "type": "Point", "coordinates": [ -94.270529692668191, 31.308632753106888 ] } },
{ "type": "Feature", "properties": { "OBJECTID": 93, "PERMANENT_IDENTIFIER": "{2715D823-AA8C-4DAE-969B-1007C9ECFF50}", "SOURCE_FEATUREID": null, "SOURCE_DATASETID": "{43CAF7AD-177F-413D-90DA-C94E9789FEC8}", "SOURCE_DATADESC": "NSD TNMC VWE Database Build - Reviewed features", "SOURCE_ORIGINATOR": "U.S. Geological Survey", "DATA_SECURITY": 5, "DISTRIBUTION_POLICY": "E4", "LOADDATE": "2012\/02\/27 13:53:49", "FTYPE": 740, "FCODE": 74026, "NAME": "Beaumont Fire Department Administrative Building", "ISLANDMARK": 2, "POINTLOCATIONTYPE": 1, "ADMINTYPE": 6, "ADDRESSBUILDINGNAME": null, "ADDRESS": "400 Walnut Street", "CITY": "Beaumont", "STATE": "TX", "ZIPCODE": "77701", "GNIS_ID": "2334558", "FOOT_ID": null, "COMPLEX_ID": null, "GLOBALID": "{17D2D4CF-A5FA-496C-B720-159052F98BCA}" }, "geometry": { "type": "Point", "coordinates": [ -94.098615564570551, 30.085982215349951 ] } },
{ "type": "Feature", "properties": { "OBJECTID": 94, "PERMANENT_IDENTIFIER": "{5D156289-B20F-4234-8F10-9A31AAD7777D}", "SOURCE_FEATUREID": null, "SOURCE_DATASETID": "{43CAF7AD-177F-413D-90DA-C94E9789FEC8}", "SOURCE_DATADESC": "NSD TNMC VWE Database Build - Reviewed features", "SOURCE_ORIGINATOR": "U.S. Geological Survey", "DATA_SECURITY": 5, "DISTRIBUTION_POLICY": "E4", "LOADDATE": "2012\/02\/27 13:53:49", "FTYPE": 740, "FCODE": 74026, "NAME": "Port Arthur Fire Department Station Number 3", "ISLANDMARK": 2, "POINTLOCATIONTYPE": 1, "ADMINTYPE": null, "ADDRESSBUILDINGNAME": " ", "ADDRESS": "2232 Canal Street", "CITY": "Port Arthur", "STATE": "TX", "ZIPCODE": "77640", "GNIS_ID": "2655451", "FOOT_ID": null, "COMPLEX_ID": null, "GLOBALID": "{61D7342E-F53F-4BF4-B552-68DEAC8607E4}" }, "geometry": { "type": "Point", "coordinates": [ -94.01251805880851, 29.897322473188588 ] } },
{ "type": "Feature", "properties": { "OBJECTID": 95, "PERMANENT_IDENTIFIER": "{4AFBD35E-9C6A-4542-94BA-29C49B41BF7A}", "SOURCE_FEATUREID": null, "SOURCE_DATASETID": "{43CAF7AD-177F-413D-90DA-C94E9789FEC8}", "SOURCE_DATADESC": "NSD TNMC VWE Database Build - Reviewed features", "SOURCE_ORIGINATOR": "U.S. Geological Survey", "DATA_SECURITY": 5, "DISTRIBUTION_POLICY": "E4", "LOADDATE": "2012\/02\/27 13:53:49", "FTYPE": 740, "FCODE": 74026, "NAME": "Fairmont Volunteer Fire Department", "ISLANDMARK": 2, "POINTLOCATIONTYPE": 1, "ADMINTYPE": null, "ADDRESSBUILDINGNAME": " ", "ADDRESS": "3134 Fairdale Road", "CITY": "Hemphill", "STATE": "TX", "ZIPCODE": "75948", "GNIS_ID": "2655507", "FOOT_ID": null, "COMPLEX_ID": null, "GLOBALID": "{C597611D-787F-4A39-9A11-25C54EE5CB2D}" }, "geometry": { "type": "Point", "coordinates": [ -93.688613637012693, 31.214957354983628 ] } },
{ "type": "Feature", "properties": { "OBJECTID": 96, "PERMANENT_IDENTIFIER": "{54DD6822-1D66-4B75-9642-43BDBC9FC00B}", "SOURCE_FEATUREID": null, "SOURCE_DATASETID": "{43CAF7AD-177F-413D-90DA-C94E9789FEC8}", "SOURCE_DATADESC": "NSD TNMC VWE Database Build - Reviewed features", "SOURCE_ORIGINATOR": "U.S. Geological Survey", "DATA_SECURITY": 5, "DISTRIBUTION_POLICY": "E4", "LOADDATE": "2012\/02\/27 13:53:49", "FTYPE": 740, "FCODE": 74026, "NAME": "Beaumont Fire and Rescue Station 1", "ISLANDMARK": 2, "POINTLOCATIONTYPE": 1, "ADMINTYPE": null, "ADDRESSBUILDINGNAME": " ", "ADDRESS": "747 College Street", "CITY": "Beaumont", "STATE": "TX", "ZIPCODE": "77701", "GNIS_ID": "2655679", "FOOT_ID": null, "COMPLEX_ID": null, "GLOBALID": "{57BA1681-A950-408F-A4B7-5D3F7961481A}" }, "geometry": { "type": "Point", "coordinates": [ -94.098789089439038, 30.077099507227153 ] } },
{ "type": "Feature", "properties": { "OBJECTID": 97, "PERMANENT_IDENTIFIER": "{4DDC0DBE-A17B-4B79-8122-D42EE4471FD1}", "SOURCE_FEATUREID": null, "SOURCE_DATASETID": "{43CAF7AD-177F-413D-90DA-C94E9789FEC8}", "SOURCE_DATADESC": "NSD TNMC VWE Database Build - Reviewed features", "SOURCE_ORIGINATOR": "U.S. Geological Survey", "DATA_SECURITY": 5, "DISTRIBUTION_POLICY": "E4", "LOADDATE": "2012\/02\/27 13:53:49", "FTYPE": 740, "FCODE": 74026, "NAME": "Attoyac Property Owners Volunteer Fire Department", "ISLANDMARK": 2, "POINTLOCATIONTYPE": 4, "ADMINTYPE": null, "ADDRESSBUILDINGNAME": " ", "ADDRESS": "County Road 3462 and County Road 3468", "CITY": "Broaddus", "STATE": "TX", "ZIPCODE": "75929", "GNIS_ID": "2655381", "FOOT_ID": null, "COMPLEX_ID": null, "GLOBALID": "{B16980FE-C63B-48AB-9FFC-69D1233DE3D5}" }, "geometry": { "type": "Point", "coordinates": [ -94.317563605262379, 31.287652547019228 ] } },
{ "type": "Feature", "properties": { "OBJECTID": 98, "PERMANENT_IDENTIFIER": "16c5f3f3-4e3a-479c-8189-3672b3e1a768", "SOURCE_FEATUREID": "9999999999", "SOURCE_DATASETID": "{CC44F99C-6658-4584-B606-926E498D5C82}", "SOURCE_DATADESC": "TNMC VWE DB Build - Vol Update", "SOURCE_ORIGINATOR": "U.S. Geological Survey", "DATA_SECURITY": 5, "DISTRIBUTION_POLICY": "E4", "LOADDATE": "2016\/08\/12 12:31:48", "FTYPE": 740, "FCODE": 74026, "NAME": "Bridge City Volunteer Fire and Rescue", "ISLANDMARK": 2, "POINTLOCATIONTYPE": 4, "ADMINTYPE": 6, "ADDRESSBUILDINGNAME": null, "ADDRESS": "330 Bland Drive", "CITY": "Bridge City", "STATE": "TX", "ZIPCODE": "77611-3706", "GNIS_ID": "2334420", "FOOT_ID": " ", "COMPLEX_ID": null, "GLOBALID": "{64AB9033-83E8-40EB-A47B-42743ABE2D53}" }, "geometry": { "type": "Point", "coordinates": [ -93.834475518739723, 30.026800804326029 ] } },
{ "type": "Feature", "properties": { "OBJECTID": 99, "PERMANENT_IDENTIFIER": "{B506776F-2947-4D86-8106-CCE2A5125EB9}", "SOURCE_FEATUREID": null, "SOURCE_DATASETID": "{43CAF7AD-177F-413D-90DA-C94E9789FEC8}", "SOURCE_DATADESC": "NSD TNMC VWE Database Build - Reviewed features", "SOURCE_ORIGINATOR": "U.S. Geological Survey", "DATA_SECURITY": 5, "DISTRIBUTION_POLICY": "E4", "LOADDATE": "2012\/02\/27 13:53:49", "FTYPE": 740, "FCODE": 74026, "NAME": "Camilla Volunteer Fire Department", "ISLANDMARK": 2, "POINTLOCATIONTYPE": 4, "ADMINTYPE": null, "ADDRESSBUILDINGNAME": " ", "ADDRESS": "601 Farm to Market Road 3278", "CITY": "Coldspring", "STATE": "TX", "ZIPCODE": "77331", "GNIS_ID": "2655386", "FOOT_ID": null, "COMPLEX_ID": null, "GLOBALID": "{FD348468-1A54-42C3-8A20-963B790E72E8}" }, "geometry": { "type": "Point", "coordinates": [ -95.053076061495659, 30.60715358205935 ] } },
{ "type": "Feature", "properties": { "OBJECTID": 100, "PERMANENT_IDENTIFIER": "244d15ea-e590-4c75-85fe-510077f5394b", "SOURCE_FEATUREID": "10410112", "SOURCE_DATASETID": "{43CAF7AD-177F-413D-90DA-C94E9789FEC8}", "SOURCE_DATADESC": "NSD TNMC VWE Database Build - Reviewed features", "SOURCE_ORIGINATOR": "U.S. Geological Survey", "DATA_SECURITY": 5, "DISTRIBUTION_POLICY": "E4", "LOADDATE": "2012\/02\/27 13:53:49", "FTYPE": 740, "FCODE": 74026, "NAME": "Silsbee Fire Department", "ISLANDMARK": 2, "POINTLOCATIONTYPE": 4, "ADMINTYPE": 6, "ADDRESSBUILDINGNAME": " ", "ADDRESS": "490 Payne Street", "CITY": "Silsbee", "STATE": "TX", "ZIPCODE": "77656", "GNIS_ID": "2334468", "FOOT_ID": " ", "COMPLEX_ID": null, "GLOBALID": "{C08D780F-A93B-4AC5-B6C0-474280408287}" }, "geometry": { "type": "Point", "coordinates": [ -94.179600065449577, 30.359446371650645 ] } },
{ "type": "Feature", "properties": { "OBJECTID": 101, "PERMANENT_IDENTIFIER": "cc2a4987-d0ca-474b-9579-4f23d7a5af9a", "SOURCE_FEATUREID": "TX000283", "SOURCE_DATASETID": "{43CAF7AD-177F-413D-90DA-C94E9789FEC8}", "SOURCE_DATADESC": "NSD TNMC VWE Database Build - Reviewed features", "SOURCE_ORIGINATOR": "U.S. Geological Survey", "DATA_SECURITY": 5, "DISTRIBUTION_POLICY": "E4", "LOADDATE": "2012\/02\/27 13:53:49", "FTYPE": 740, "FCODE": 74026, "NAME": "Huntsville City Fire Department Headquarters", "ISLANDMARK": 2, "POINTLOCATIONTYPE": 1, "ADMINTYPE": 0, "ADDRESSBUILDINGNAME": " ", "ADDRESS": "1319 Avenue M", "CITY": "Huntsville", "STATE": "TX", "ZIPCODE": "77340", "GNIS_ID": "2655225", "FOOT_ID": " ", "COMPLEX_ID": null, "GLOBALID": "{F7320048-5FB4-4638-8EF6-D3908CE16445}" }, "geometry": { "type": "Point", "coordinates": [ -95.552721626738958, 30.721279412019896 ] } },
{ "type": "Feature", "properties": { "OBJECTID": 102, "PERMANENT_IDENTIFIER": "{56D5FDA9-B89F-4F8A-9955-2DC866861F4C}", "SOURCE_FEATUREID": null, "SOURCE_DATASETID": "{43CAF7AD-177F-413D-90DA-C94E9789FEC8}", "SOURCE_DATADESC": "NSD TNMC VWE Database Build - Reviewed features", "SOURCE_ORIGINATOR": "U.S. Geological Survey", "DATA_SECURITY": 5, "DISTRIBUTION_POLICY": "E4", "LOADDATE": "2012\/02\/27 13:53:49", "FTYPE": 740, "FCODE": 74026, "NAME": "Texas Forest Service Livingston Office", "ISLANDMARK": 2, "POINTLOCATIONTYPE": 4, "ADMINTYPE": null, "ADDRESSBUILDINGNAME": " ", "ADDRESS": "2500 US Highway 190 East", "CITY": "Livingston", "STATE": "TX", "ZIPCODE": "77351", "GNIS_ID": "2655472", "FOOT_ID": null, "COMPLEX_ID": null, "GLOBALID": "{60B7300E-87DA-472C-908F-D2FDF21D0A12}" }, "geometry": { "type": "Point", "coordinates": [ -94.880052821245968, 30.710605109075342 ] } },
{ "type": "Feature", "properties": { "OBJECTID": 103, "PERMANENT_IDENTIFIER": "{29D76642-5EA4-40F5-8C94-ED5667064610}", "SOURCE_FEATUREID": null, "SOURCE_DATASETID": "{43CAF7AD-177F-413D-90DA-C94E9789FEC8}", "SOURCE_DATADESC": "NSD TNMC VWE Database Build - Reviewed features", "SOURCE_ORIGINATOR": "U.S. Geological Survey", "DATA_SECURITY": 5, "DISTRIBUTION_POLICY": "E4", "LOADDATE": "2012\/02\/27 13:53:49", "FTYPE": 740, "FCODE": 74026, "NAME": "Port Arthur Fire Department Station Number 2", "ISLANDMARK": 2, "POINTLOCATIONTYPE": 4, "ADMINTYPE": null, "ADDRESSBUILDINGNAME": " ", "ADDRESS": "1201 Grannis Avenue", "CITY": "Port Arthur", "STATE": "TX", "ZIPCODE": "77640", "GNIS_ID": "2655442", "FOOT_ID": null, "COMPLEX_ID": null, "GLOBALID": "{5C07F699-4064-4316-AC8D-66C7D7D8A098}" }, "geometry": { "type": "Point", "coordinates": [ -93.950182941655612, 29.868638468127347 ] } },
{ "type": "Feature", "properties": { "OBJECTID": 104, "PERMANENT_IDENTIFIER": "{ECE88AC7-1DC8-47BC-B33C-4D2F72A109E7}", "SOURCE_FEATUREID": null, "SOURCE_DATASETID": "{43CAF7AD-177F-413D-90DA-C94E9789FEC8}", "SOURCE_DATADESC": "NSD TNMC VWE Database Build - Reviewed features", "SOURCE_ORIGINATOR": "U.S. Geological Survey", "DATA_SECURITY": 5, "DISTRIBUTION_POLICY": "E4", "LOADDATE": "2012\/02\/27 13:53:49", "FTYPE": 740, "FCODE": 74026, "NAME": "Port Arthur Fire Department Station Number 1", "ISLANDMARK": 2, "POINTLOCATIONTYPE": 4, "ADMINTYPE": null, "ADDRESSBUILDINGNAME": " ", "ADDRESS": "1215 Woodworth Boulevard", "CITY": "Port Arthur", "STATE": "TX", "ZIPCODE": "77640", "GNIS_ID": "2655443", "FOOT_ID": null, "COMPLEX_ID": null, "GLOBALID": "{14FEB005-A07B-4956-8B9C-B774AB0F49B0}" }, "geometry": { "type": "Point", "coordinates": [ -93.925044836189443, 29.89577627512281 ] } },
{ "type": "Feature", "properties": { "OBJECTID": 105, "PERMANENT_IDENTIFIER": "6ed7f708-d3b6-42dd-b611-40008780748a", "SOURCE_FEATUREID": "10414108", "SOURCE_DATASETID": "{43CAF7AD-177F-413D-90DA-C94E9789FEC8}", "SOURCE_DATADESC": "NSD TNMC VWE Database Build - Reviewed features", "SOURCE_ORIGINATOR": "U.S. Geological Survey", "DATA_SECURITY": 5, "DISTRIBUTION_POLICY": "E4", "LOADDATE": "2012\/02\/27 13:53:49", "FTYPE": 740, "FCODE": 74026, "NAME": "Evadale Volunteer Fire Department", "ISLANDMARK": 2, "POINTLOCATIONTYPE": 4, "ADMINTYPE": 6, "ADDRESSBUILDINGNAME": " ", "ADDRESS": "964 Farm to Market Road 105", "CITY": "Buna", "STATE": "TX", "ZIPCODE": "77612", "GNIS_ID": "2334437", "FOOT_ID": " ", "COMPLEX_ID": null, "GLOBALID": "{82C3A8C0-35BA-4922-9209-F1044FAFEB91}" }, "geometry": { "type": "Point", "coordinates": [ -94.077457620142155, 30.345583774932241 ] } },
{ "type": "Feature", "properties": { "OBJECTID": 106, "PERMANENT_IDENTIFIER": "{B334B340-CF2D-4AD4-9BF5-524E3E8024E3}", "SOURCE_FEATUREID": null, "SOURCE_DATASETID": "{43CAF7AD-177F-413D-90DA-C94E9789FEC8}", "SOURCE_DATADESC": "NSD TNMC VWE Database Build - Reviewed features", "SOURCE_ORIGINATOR": "U.S. Geological Survey", "DATA_SECURITY": 5, "DISTRIBUTION_POLICY": "E4", "LOADDATE": "2012\/02\/27 13:53:49", "FTYPE": 740, "FCODE": 74026, "NAME": "Waterwood Volunteer Fire Department", "ISLANDMARK": 2, "POINTLOCATIONTYPE": 4, "ADMINTYPE": null, "ADDRESSBUILDINGNAME": " ", "ADDRESS": "Waterwood Parkway", "CITY": "Pointblank", "STATE": "TX", "ZIPCODE": "77364", "GNIS_ID": "2655546", "FOOT_ID": null, "COMPLEX_ID": null, "GLOBALID": "{113A511F-C5DA-4B5C-9043-E63B9EA76B8B}" }, "geometry": { "type": "Point", "coordinates": [ -95.244348521046717, 30.821777418387395 ] } },
{ "type": "Feature", "properties": { "OBJECTID": 107, "PERMANENT_IDENTIFIER": "{33821401-8F8D-4B3C-A713-33FAB4586D71}", "SOURCE_FEATUREID": null, "SOURCE_DATASETID": "{43CAF7AD-177F-413D-90DA-C94E9789FEC8}", "SOURCE_DATADESC": "NSD TNMC VWE Database Build - Reviewed features", "SOURCE_ORIGINATOR": "U.S. Geological Survey", "DATA_SECURITY": 5, "DISTRIBUTION_POLICY": "E4", "LOADDATE": "2012\/02\/27 13:53:49", "FTYPE": 740, "FCODE": 74026, "NAME": "Beaumont Fire and Rescue Station 8", "ISLANDMARK": 2, "POINTLOCATIONTYPE": 1, "ADMINTYPE": null, "ADDRESSBUILDINGNAME": " ", "ADDRESS": "6297 State Highway 105", "CITY": "Beaumont", "STATE": "TX", "ZIPCODE": "77708", "GNIS_ID": "2655677", "FOOT_ID": null, "COMPLEX_ID": null, "GLOBALID": "{5E8B9414-8BE7-412F-8F56-10B0C773AD2D}" }, "geometry": { "type": "Point", "coordinates": [ -94.175490911726868, 30.132987216048541 ] } },
{ "type": "Feature", "properties": { "OBJECTID": 108, "PERMANENT_IDENTIFIER": "{C8144EE8-9573-4304-AD78-4D09E76D5F20}", "SOURCE_FEATUREID": null, "SOURCE_DATASETID": "{43CAF7AD-177F-413D-90DA-C94E9789FEC8}", "SOURCE_DATADESC": "NSD TNMC VWE Database Build - Reviewed features", "SOURCE_ORIGINATOR": "U.S. Geological Survey", "DATA_SECURITY": 5, "DISTRIBUTION_POLICY": "E4", "LOADDATE": "2012\/02\/27 13:53:49", "FTYPE": 740, "FCODE": 74026, "NAME": "Shepherd Volunteer Fire Department", "ISLANDMARK": 2, "POINTLOCATIONTYPE": 4, "ADMINTYPE": null, "ADDRESSBUILDINGNAME": " ", "ADDRESS": "100 North Liberty Street", "CITY": "Shepherd", "STATE": "TX", "ZIPCODE": "77371", "GNIS_ID": "2655382", "FOOT_ID": null, "COMPLEX_ID": null, "GLOBALID": "{A13DA74E-C9F2-4A0D-85E4-0B2BC03935DA}" }, "geometry": { "type": "Point", "coordinates": [ -94.996717742253523, 30.499248961125964 ] } },
{ "type": "Feature", "properties": { "OBJECTID": 109, "PERMANENT_IDENTIFIER": "{E39682D2-F6A7-43FB-AEDB-325E334B2D8A}", "SOURCE_FEATUREID": null, "SOURCE_DATASETID": "{43CAF7AD-177F-413D-90DA-C94E9789FEC8}", "SOURCE_DATADESC": "NSD TNMC VWE Database Build - Reviewed features", "SOURCE_ORIGINATOR": "U.S. Geological Survey", "DATA_SECURITY": 5, "DISTRIBUTION_POLICY": "E4", "LOADDATE": "2012\/02\/27 13:53:49", "FTYPE": 740, "FCODE": 74026, "NAME": "Winnie - Stowell Volunteer Fire Department", "ISLANDMARK": 2, "POINTLOCATIONTYPE": 4, "ADMINTYPE": null, "ADDRESSBUILDINGNAME": " ", "ADDRESS": "1825 State Highway 124", "CITY": "Winnie", "STATE": "TX", "ZIPCODE": "77665", "GNIS_ID": "2655699", "FOOT_ID": null, "COMPLEX_ID": null, "GLOBALID": "{14FB6557-90A5-458E-B0B0-644AD2CA3C52}" }, "geometry": { "type": "Point", "coordinates": [ -94.383607551813057, 29.81877024344503 ] } },
{ "type": "Feature", "properties": { "OBJECTID": 110, "PERMANENT_IDENTIFIER": "{40D78C2E-4862-4E46-8888-2DD888F44772}", "SOURCE_FEATUREID": null, "SOURCE_DATASETID": "{43CAF7AD-177F-413D-90DA-C94E9789FEC8}", "SOURCE_DATADESC": "NSD TNMC VWE Database Build - Reviewed features", "SOURCE_ORIGINATOR": "U.S. Geological Survey", "DATA_SECURITY": 5, "DISTRIBUTION_POLICY": "E4", "LOADDATE": "2012\/02\/27 13:53:49", "FTYPE": 740, "FCODE": 74026, "NAME": "Texas Forest Service Woodville Office", "ISLANDMARK": 2, "POINTLOCATIONTYPE": 4, "ADMINTYPE": null, "ADDRESSBUILDINGNAME": " ", "ADDRESS": "US Highway 69 South and County Road 1040", "CITY": "Woodville", "STATE": "TX", "ZIPCODE": "75979", "GNIS_ID": "2655592", "FOOT_ID": null, "COMPLEX_ID": null, "GLOBALID": "{C3193556-1EFA-4022-9C4A-C978C11DA3D2}" }, "geometry": { "type": "Point", "coordinates": [ -94.431145107566223, 30.742696631822945 ] } },
{ "type": "Feature", "properties": { "OBJECTID": 111, "PERMANENT_IDENTIFIER": "{544A0C89-CB48-4740-8F24-3F5BC5944CB3}", "SOURCE_FEATUREID": null, "SOURCE_DATASETID": "{43CAF7AD-177F-413D-90DA-C94E9789FEC8}", "SOURCE_DATADESC": "NSD TNMC VWE Database Build - Reviewed features", "SOURCE_ORIGINATOR": "U.S. Geological Survey", "DATA_SECURITY": 5, "DISTRIBUTION_POLICY": "E4", "LOADDATE": "2012\/02\/27 13:53:49", "FTYPE": 740, "FCODE": 74026, "NAME": "Powell Town Volunteer Fire Department", "ISLANDMARK": 2, "POINTLOCATIONTYPE": 1, "ADMINTYPE": null, "ADDRESSBUILDINGNAME": " ", "ADDRESS": "22019 Farm to Market Road 705", "CITY": "Broaddus", "STATE": "TX", "ZIPCODE": "75929", "GNIS_ID": "2655380", "FOOT_ID": null, "COMPLEX_ID": null, "GLOBALID": "{128854F3-6B01-4E4E-800C-F8BEFBB3BBCA}" }, "geometry": { "type": "Point", "coordinates": [ -94.08975973714108, 31.125061021434124 ] } },
{ "type": "Feature", "properties": { "OBJECTID": 112, "PERMANENT_IDENTIFIER": "1dd87b99-fc99-48cb-9ad5-d8be1c96a6a5", "SOURCE_FEATUREID": "TX001185", "SOURCE_DATASETID": "{43CAF7AD-177F-413D-90DA-C94E9789FEC8}", "SOURCE_DATADESC": "NSD TNMC VWE Database Build - Reviewed features", "SOURCE_ORIGINATOR": "U.S. Geological Survey", "DATA_SECURITY": 5, "DISTRIBUTION_POLICY": "E4", "LOADDATE": "2012\/02\/27 13:53:49", "FTYPE": 740, "FCODE": 74026, "NAME": "Ames Community Volunteer Fire Department", "ISLANDMARK": 2, "POINTLOCATIONTYPE": 4, "ADMINTYPE": 6, "ADDRESSBUILDINGNAME": " ", "ADDRESS": "Farm to Market Road 160", "CITY": "Ames", "STATE": "TX", "ZIPCODE": "77575", "GNIS_ID": "2334799", "FOOT_ID": " ", "COMPLEX_ID": null, "GLOBALID": "{E2E573D8-57EF-4676-841F-21724896686C}" }, "geometry": { "type": "Point", "coordinates": [ -94.743347221071588, 30.05402405312466 ] } },
{ "type": "Feature", "properties": { "OBJECTID": 113, "PERMANENT_IDENTIFIER": "{2E45E196-E0B4-46D9-89C6-1FC7E9DF42BE}", "SOURCE_FEATUREID": null, "SOURCE_DATASETID": "{43CAF7AD-177F-413D-90DA-C94E9789FEC8}", "SOURCE_DATADESC": "NSD TNMC VWE Database Build - Reviewed features", "SOURCE_ORIGINATOR": "U.S. Geological Survey", "DATA_SECURITY": 5, "DISTRIBUTION_POLICY": "E4", "LOADDATE": "2012\/02\/27 13:53:49", "FTYPE": 740, "FCODE": 74026, "NAME": "Orange Fire Department Station 2", "ISLANDMARK": 2, "POINTLOCATIONTYPE": 4, "ADMINTYPE": null, "ADDRESSBUILDINGNAME": " ", "ADDRESS": "1901 Allie Payne Road", "CITY": "Orange", "STATE": "TX", "ZIPCODE": "77632", "GNIS_ID": "2655527", "FOOT_ID": null, "COMPLEX_ID": null, "GLOBALID": "{FBF2E629-E216-4176-A3F7-C93BAF1866A6}" }, "geometry": { "type": "Point", "coordinates": [ -93.755960603357707, 30.141464131690078 ] } },
{ "type": "Feature", "properties": { "OBJECTID": 114, "PERMANENT_IDENTIFIER": "{B107BCDF-81FB-46D7-AF90-00067D0387C3}", "SOURCE_FEATUREID": null, "SOURCE_DATASETID": "{43CAF7AD-177F-413D-90DA-C94E9789FEC8}", "SOURCE_DATADESC": "NSD TNMC VWE Database Build - Reviewed features", "SOURCE_ORIGINATOR": "U.S. Geological Survey", "DATA_SECURITY": 5, "DISTRIBUTION_POLICY": "E4", "LOADDATE": "2012\/02\/27 13:53:49", "FTYPE": 740, "FCODE": 74026, "NAME": "Devil's Pocket Volunteer Fire Department", "ISLANDMARK": 2, "POINTLOCATIONTYPE": 4, "ADMINTYPE": null, "ADDRESSBUILDINGNAME": " ", "ADDRESS": "Farm to Market Road 253 East", "CITY": "Deweyville", "STATE": "TX", "ZIPCODE": "77614", "GNIS_ID": "2655551", "FOOT_ID": null, "COMPLEX_ID": null, "GLOBALID": "{3ECCCB82-7E61-4C8B-8E87-68A11B9239CD}" }, "geometry": { "type": "Point", "coordinates": [ -93.804215828581263, 30.423561588457918 ] } },
{ "type": "Feature", "properties": { "OBJECTID": 115, "PERMANENT_IDENTIFIER": "6ad02f44-b6dd-4b2f-a1e6-45ccca833ade", "SOURCE_FEATUREID": "10409985", "SOURCE_DATASETID": "{43CAF7AD-177F-413D-90DA-C94E9789FEC8}", "SOURCE_DATADESC": "NSD TNMC VWE Database Build - Reviewed features", "SOURCE_ORIGINATOR": "U.S. Geological Survey", "DATA_SECURITY": 5, "DISTRIBUTION_POLICY": "E4", "LOADDATE": "2009\/12\/24 07:02:08", "FTYPE": 740, "FCODE": 74026, "NAME": "Iola Volunteer Fire Department", "ISLANDMARK": 2, "POINTLOCATIONTYPE": 4, "ADMINTYPE": 0, "ADDRESSBUILDINGNAME": " ", "ADDRESS": "23574 Brazos Road", "CITY": "Iola", "STATE": "TX", "ZIPCODE": "77861", "GNIS_ID": "2552246", "FOOT_ID": " ", "COMPLEX_ID": null, "GLOBALID": "{0EAD651D-CE8C-4630-90A6-B74C87D2B708}" }, "geometry": { "type": "Point", "coordinates": [ -96.07558980359839, 30.772742547699522 ] } },
{ "type": "Feature", "properties": { "OBJECTID": 116, "PERMANENT_IDENTIFIER": "{A888CC65-903A-439D-9C65-CF8DCEE39B72}", "SOURCE_FEATUREID": null, "SOURCE_DATASETID": "{43CAF7AD-177F-413D-90DA-C94E9789FEC8}", "SOURCE_DATADESC": "NSD TNMC VWE Database Build - Reviewed features", "SOURCE_ORIGINATOR": "U.S. Geological Survey", "DATA_SECURITY": 5, "DISTRIBUTION_POLICY": "E4", "LOADDATE": "2012\/02\/27 13:53:49", "FTYPE": 740, "FCODE": 74026, "NAME": "Ivanhoe Volunteer Fire Department", "ISLANDMARK": 2, "POINTLOCATIONTYPE": 4, "ADMINTYPE": null, "ADDRESSBUILDINGNAME": " ", "ADDRESS": "611 Friar Tuck North Drive", "CITY": "Woodville", "STATE": "TX", "ZIPCODE": "75979", "GNIS_ID": "2655714", "FOOT_ID": null, "COMPLEX_ID": null, "GLOBALID": "{6E5E8832-31DB-497D-B0FA-B810370CF79C}" }, "geometry": { "type": "Point", "coordinates": [ -94.416875700756336, 30.679961319944958 ] } },
{ "type": "Feature", "properties": { "OBJECTID": 117, "PERMANENT_IDENTIFIER": "99c4f682-25a7-42f1-9da5-5b2a45e64fe0", "SOURCE_FEATUREID": "10414038", "SOURCE_DATASETID": "{43CAF7AD-177F-413D-90DA-C94E9789FEC8}", "SOURCE_DATADESC": "NSD TNMC VWE Database Build - Reviewed features", "SOURCE_ORIGINATOR": "U.S. Geological Survey", "DATA_SECURITY": 5, "DISTRIBUTION_POLICY": "E4", "LOADDATE": "2012\/02\/27 13:53:49", "FTYPE": 740, "FCODE": 74026, "NAME": "Little Cypress Fire \/ Rescue Department Station 1", "ISLANDMARK": 2, "POINTLOCATIONTYPE": 4, "ADMINTYPE": 6, "ADDRESSBUILDINGNAME": " ", "ADDRESS": "8465 US Highway 87 North", "CITY": "Orange", "STATE": "TX", "ZIPCODE": "77632", "GNIS_ID": "2334485", "FOOT_ID": " ", "COMPLEX_ID": null, "GLOBALID": "{C2C6978C-5AD6-4CFD-AE6A-71F6E871A19F}" }, "geometry": { "type": "Point", "coordinates": [ -93.757993274351705, 30.176679263413625 ] } },
{ "type": "Feature", "properties": { "OBJECTID": 118, "PERMANENT_IDENTIFIER": "5b4e6d65-79a1-42ad-bb8d-97bbb7224d1c", "SOURCE_FEATUREID": "10144734", "SOURCE_DATASETID": "{43CAF7AD-177F-413D-90DA-C94E9789FEC8}", "SOURCE_DATADESC": "NSD TNMC VWE Database Build - Reviewed features", "SOURCE_ORIGINATOR": "U.S. Geological Survey", "DATA_SECURITY": 5, "DISTRIBUTION_POLICY": "E4", "LOADDATE": "2012\/02\/27 13:53:49", "FTYPE": 740, "FCODE": 74026, "NAME": "Kountze Volunteer Fire Department Station 1", "ISLANDMARK": 2, "POINTLOCATIONTYPE": 1, "ADMINTYPE": 6, "ADDRESSBUILDINGNAME": " ", "ADDRESS": "360 East Deer Street", "CITY": "Kountze", "STATE": "TX", "ZIPCODE": "77625", "GNIS_ID": "2334510", "FOOT_ID": " ", "COMPLEX_ID": null, "GLOBALID": "{8D507661-6C61-441C-8369-C5E65720FFF1}" }, "geometry": { "type": "Point", "coordinates": [ -94.312268451684162, 30.374990269857559 ] } },
{ "type": "Feature", "properties": { "OBJECTID": 119, "PERMANENT_IDENTIFIER": "{F4AF511C-6FFB-43E1-845C-A8B196C9C2D5}", "SOURCE_FEATUREID": "10425418", "SOURCE_DATASETID": "{43CAF7AD-177F-413D-90DA-C94E9789FEC8}", "SOURCE_DATADESC": "NSD TNMC VWE Database Build - Reviewed features", "SOURCE_ORIGINATOR": "U.S. Geological Survey", "DATA_SECURITY": 5, "DISTRIBUTION_POLICY": "E4", "LOADDATE": "2012\/02\/27 13:53:49", "FTYPE": 740, "FCODE": 74026, "NAME": "Fred Volunteer Fire Department", "ISLANDMARK": 2, "POINTLOCATIONTYPE": 4, "ADMINTYPE": 6, "ADDRESSBUILDINGNAME": null, "ADDRESS": "Farm to Market Road 92 South", "CITY": "Fred", "STATE": "TX", "ZIPCODE": "77616", "GNIS_ID": "2334641", "FOOT_ID": null, "COMPLEX_ID": null, "GLOBALID": "{D8C8D697-C4DB-4B7D-88F4-FD4DC213C321}" }, "geometry": { "type": "Point", "coordinates": [ -94.17574303109788, 30.573178802375111 ] } },
{ "type": "Feature", "properties": { "OBJECTID": 120, "PERMANENT_IDENTIFIER": "{F8E66F9A-730B-4AD1-9745-84F049A7D0B8}", "SOURCE_FEATUREID": null, "SOURCE_DATASETID": "{43CAF7AD-177F-413D-90DA-C94E9789FEC8}", "SOURCE_DATADESC": "NSD TNMC VWE Database Build - Reviewed features", "SOURCE_ORIGINATOR": "U.S. Geological Survey", "DATA_SECURITY": 5, "DISTRIBUTION_POLICY": "E4", "LOADDATE": "2012\/02\/27 13:53:49", "FTYPE": 740, "FCODE": 74026, "NAME": "Port Arthur Fire Department Station Number 4", "ISLANDMARK": 2, "POINTLOCATIONTYPE": 4, "ADMINTYPE": null, "ADDRESSBUILDINGNAME": " ", "ADDRESS": "5030 Gulfway Drive", "CITY": "Port Arthur", "STATE": "TX", "ZIPCODE": "77642", "GNIS_ID": "2655444", "FOOT_ID": null, "COMPLEX_ID": null, "GLOBALID": "{ADB86300-02C1-4A15-B1A3-DBE54F7C5D25}" }, "geometry": { "type": "Point", "coordinates": [ -93.913558534097263, 29.914734579654642 ] } },
{ "type": "Feature", "properties": { "OBJECTID": 121, "PERMANENT_IDENTIFIER": "a88d6d81-c8eb-4293-a4b5-c3f6e6de9e6e", "SOURCE_FEATUREID": "10415385", "SOURCE_DATASETID": "{43CAF7AD-177F-413D-90DA-C94E9789FEC8}", "SOURCE_DATADESC": "NSD TNMC VWE Database Build - Reviewed features", "SOURCE_ORIGINATOR": "U.S. Geological Survey", "DATA_SECURITY": 5, "DISTRIBUTION_POLICY": "E4", "LOADDATE": "2012\/02\/27 13:53:49", "FTYPE": 740, "FCODE": 74026, "NAME": "Toledo Bend Volunteer Fire Department", "ISLANDMARK": 0, "POINTLOCATIONTYPE": 4, "ADMINTYPE": 0, "ADDRESSBUILDINGNAME": " ", "ADDRESS": "8663 Texas Road 255 East", "CITY": "Burkeville", "STATE": "TX", "ZIPCODE": "75932", "GNIS_ID": "2655163", "FOOT_ID": " ", "COMPLEX_ID": null, "GLOBALID": "{CB90FDCD-658B-42A1-80DD-E3DDA049C103}" }, "geometry": { "type": "Point", "coordinates": [ -93.604040268657243, 31.147343904264645 ] } },
{ "type": "Feature", "properties": { "OBJECTID": 122, "PERMANENT_IDENTIFIER": "9c3e147b-77c7-4301-9524-6bfc2aac2ec9", "SOURCE_FEATUREID": "10414116", "SOURCE_DATASETID": "{43CAF7AD-177F-413D-90DA-C94E9789FEC8}", "SOURCE_DATADESC": "NSD TNMC VWE Database Build - Reviewed features", "SOURCE_ORIGINATOR": "U.S. Geological Survey", "DATA_SECURITY": 5, "DISTRIBUTION_POLICY": "E4", "LOADDATE": "2012\/02\/27 13:53:49", "FTYPE": 740, "FCODE": 74026, "NAME": "Tri - Community Volunteer Fire Department", "ISLANDMARK": 2, "POINTLOCATIONTYPE": 1, "ADMINTYPE": 6, "ADDRESSBUILDINGNAME": " ", "ADDRESS": "7732 Farm to Market Road 1005", "CITY": "Kirbyville", "STATE": "TX", "ZIPCODE": "75956", "GNIS_ID": "2334528", "FOOT_ID": " ", "COMPLEX_ID": null, "GLOBALID": "{6A3E1A0E-463D-40B9-BEA6-63FC1DBB85D5}" }, "geometry": { "type": "Point", "coordinates": [ -94.026873278084253, 30.735995476194311 ] } },
{ "type": "Feature", "properties": { "OBJECTID": 123, "PERMANENT_IDENTIFIER": "8664cfda-53c1-4e9c-8a8d-232c418856e2", "SOURCE_FEATUREID": "10414112", "SOURCE_DATASETID": "{43CAF7AD-177F-413D-90DA-C94E9789FEC8}", "SOURCE_DATADESC": "NSD TNMC VWE Database Build - Reviewed features", "SOURCE_ORIGINATOR": "U.S. Geological Survey", "DATA_SECURITY": 5, "DISTRIBUTION_POLICY": "E4", "LOADDATE": "2012\/02\/27 13:53:49", "FTYPE": 740, "FCODE": 74026, "NAME": "Lake Rayburn Fire Department", "ISLANDMARK": 0, "POINTLOCATIONTYPE": 4, "ADMINTYPE": 0, "ADDRESSBUILDINGNAME": " ", "ADDRESS": "2420 Wingate Boulevard", "CITY": "Brookeland", "STATE": "TX", "ZIPCODE": "75931", "GNIS_ID": "2655252", "FOOT_ID": " ", "COMPLEX_ID": null, "GLOBALID": "{93ADFE45-BA3D-4334-8041-D7AA8BC6F29E}" }, "geometry": { "type": "Point", "coordinates": [ -94.023879833741077, 31.074413748304774 ] } },
{ "type": "Feature", "properties": { "OBJECTID": 124, "PERMANENT_IDENTIFIER": "{559BBEB1-0FD6-4123-9A09-DB202BF51A91}", "SOURCE_FEATUREID": null, "SOURCE_DATASETID": "{43CAF7AD-177F-413D-90DA-C94E9789FEC8}", "SOURCE_DATADESC": "NSD TNMC VWE Database Build - Reviewed features", "SOURCE_ORIGINATOR": "U.S. Geological Survey", "DATA_SECURITY": 5, "DISTRIBUTION_POLICY": "E4", "LOADDATE": "2012\/02\/27 13:53:49", "FTYPE": 740, "FCODE": 74026, "NAME": "Beaumont Fire and Rescue Station 7", "ISLANDMARK": 2, "POINTLOCATIONTYPE": 4, "ADMINTYPE": null, "ADDRESSBUILDINGNAME": " ", "ADDRESS": "1710 McFaddin Avenue", "CITY": "Beaumont", "STATE": "TX", "ZIPCODE": "77701", "GNIS_ID": "2655678", "FOOT_ID": null, "COMPLEX_ID": null, "GLOBALID": "{E2008B99-7898-422A-BF33-8B59DBF1B846}" }, "geometry": { "type": "Point", "coordinates": [ -94.112983993572527, 30.087206508589034 ] } },
{ "type": "Feature", "properties": { "OBJECTID": 125, "PERMANENT_IDENTIFIER": "{7B81D466-C277-4292-9F35-3F25258A8BAE}", "SOURCE_FEATUREID": null, "SOURCE_DATASETID": "{43CAF7AD-177F-413D-90DA-C94E9789FEC8}", "SOURCE_DATADESC": "NSD TNMC VWE Database Build - Reviewed features", "SOURCE_ORIGINATOR": "U.S. Geological Survey", "DATA_SECURITY": 5, "DISTRIBUTION_POLICY": "E4", "LOADDATE": "2012\/02\/27 13:53:49", "FTYPE": 740, "FCODE": 74026, "NAME": "Angelina River Volunteer Fire Department", "ISLANDMARK": 2, "POINTLOCATIONTYPE": 4, "ADMINTYPE": null, "ADDRESSBUILDINGNAME": " ", "ADDRESS": "297 County Road 080", "CITY": "Jasper", "STATE": "TX", "ZIPCODE": "75951", "GNIS_ID": "2655367", "FOOT_ID": null, "COMPLEX_ID": null, "GLOBALID": "{87D8A3F0-4B19-4CE1-B9C7-38430D061A12}" }, "geometry": { "type": "Point", "coordinates": [ -94.148102645051623, 30.992637292719557 ] } },
{ "type": "Feature", "properties": { "OBJECTID": 126, "PERMANENT_IDENTIFIER": "{8DBCAC4B-9D14-4D95-B373-CF9CA2B59DD7}", "SOURCE_FEATUREID": null, "SOURCE_DATASETID": "{43CAF7AD-177F-413D-90DA-C94E9789FEC8}", "SOURCE_DATADESC": "NSD TNMC VWE Database Build - Reviewed features", "SOURCE_ORIGINATOR": "U.S. Geological Survey", "DATA_SECURITY": 5, "DISTRIBUTION_POLICY": "E4", "LOADDATE": "2012\/02\/27 13:53:49", "FTYPE": 740, "FCODE": 74026, "NAME": "Kountze Volunteer Fire Department Station 2", "ISLANDMARK": 2, "POINTLOCATIONTYPE": 1, "ADMINTYPE": null, "ADDRESSBUILDINGNAME": " ", "ADDRESS": "US Highway 69 South", "CITY": "Kountze", "STATE": "TX", "ZIPCODE": "77625", "GNIS_ID": "2655434", "FOOT_ID": null, "COMPLEX_ID": null, "GLOBALID": "{C87D431B-1DD4-484A-9FA6-67B52520AF4D}" }, "geometry": { "type": "Point", "coordinates": [ -94.247185438382786, 30.308395948989066 ] } },
{ "type": "Feature", "properties": { "OBJECTID": 127, "PERMANENT_IDENTIFIER": "be9847ca-0f4d-4cd0-b4bc-e595e97809ae", "SOURCE_FEATUREID": "10414392", "SOURCE_DATASETID": "{43CAF7AD-177F-413D-90DA-C94E9789FEC8}", "SOURCE_DATADESC": "NSD TNMC VWE Database Build - Reviewed features", "SOURCE_ORIGINATOR": "U.S. Geological Survey", "DATA_SECURITY": 5, "DISTRIBUTION_POLICY": "E4", "LOADDATE": "2012\/02\/27 13:53:49", "FTYPE": 740, "FCODE": 74026, "NAME": "Indian Springs Volunteer Fire Department", "ISLANDMARK": 2, "POINTLOCATIONTYPE": 1, "ADMINTYPE": 0, "ADDRESSBUILDINGNAME": " ", "ADDRESS": "210 Pichetto Trail", "CITY": "Livingston", "STATE": "TX", "ZIPCODE": "77351", "GNIS_ID": "2655239", "FOOT_ID": " ", "COMPLEX_ID": null, "GLOBALID": "{DD1A2C4E-7216-4E7E-8FFA-E85B59BEF17E}" }, "geometry": { "type": "Point", "coordinates": [ -94.753047634649704, 30.696651860789341 ] } },
{ "type": "Feature", "properties": { "OBJECTID": 128, "PERMANENT_IDENTIFIER": "f30c184d-64e7-4f90-8b3f-8117058d0105", "SOURCE_FEATUREID": "10415315", "SOURCE_DATASETID": "{43CAF7AD-177F-413D-90DA-C94E9789FEC8}", "SOURCE_DATADESC": "NSD TNMC VWE Database Build - Reviewed features", "SOURCE_ORIGINATOR": "U.S. Geological Survey", "DATA_SECURITY": 5, "DISTRIBUTION_POLICY": "E4", "LOADDATE": "2012\/02\/27 13:53:49", "FTYPE": 740, "FCODE": 74026, "NAME": "Goodrich Volunteer Fire Department", "ISLANDMARK": 2, "POINTLOCATIONTYPE": 4, "ADMINTYPE": 0, "ADDRESSBUILDINGNAME": " ", "ADDRESS": "1003 State Highway 393 Loop", "CITY": "Goodrich", "STATE": "TX", "ZIPCODE": "77335", "GNIS_ID": "2655213", "FOOT_ID": " ", "COMPLEX_ID": null, "GLOBALID": "{9FE8103D-D419-45B6-9EAF-88E20B7034BA}" }, "geometry": { "type": "Point", "coordinates": [ -94.94701198488282, 30.607213106903991 ] } },
{ "type": "Feature", "properties": { "OBJECTID": 129, "PERMANENT_IDENTIFIER": "e0c6be86-9e25-45f0-81b7-f499d41c9e68", "SOURCE_FEATUREID": "10139559", "SOURCE_DATASETID": "{43CAF7AD-177F-413D-90DA-C94E9789FEC8}", "SOURCE_DATADESC": "NSD TNMC VWE Database Build - Reviewed features", "SOURCE_ORIGINATOR": "U.S. Geological Survey", "DATA_SECURITY": 5, "DISTRIBUTION_POLICY": "E4", "LOADDATE": "2012\/02\/27 13:53:49", "FTYPE": 740, "FCODE": 74026, "NAME": "East End Fire Department", "ISLANDMARK": 0, "POINTLOCATIONTYPE": 4, "ADMINTYPE": 0, "ADDRESSBUILDINGNAME": " ", "ADDRESS": "1165 Farm to Market Road 1738", "CITY": "Jasper", "STATE": "TX", "ZIPCODE": "75951", "GNIS_ID": "2655241", "FOOT_ID": " ", "COMPLEX_ID": null, "GLOBALID": "{F9A9B9DD-B269-4ADA-9446-9C72C49F18B3}" }, "geometry": { "type": "Point", "coordinates": [ -93.910279471307831, 30.965553840527864 ] } },
{ "type": "Feature", "properties": { "OBJECTID": 130, "PERMANENT_IDENTIFIER": "{E193D331-BCDC-4643-A1A8-0DDEAF568FF5}", "SOURCE_FEATUREID": null, "SOURCE_DATASETID": "{43CAF7AD-177F-413D-90DA-C94E9789FEC8}", "SOURCE_DATADESC": "NSD TNMC VWE Database Build - Reviewed features", "SOURCE_ORIGINATOR": "U.S. Geological Survey", "DATA_SECURITY": 5, "DISTRIBUTION_POLICY": "E4", "LOADDATE": "2012\/02\/27 13:53:49", "FTYPE": 740, "FCODE": 74026, "NAME": "Hull - Daisetta Volunteer Fire Department", "ISLANDMARK": 2, "POINTLOCATIONTYPE": 1, "ADMINTYPE": null, "ADDRESSBUILDINGNAME": " ", "ADDRESS": "110 North Main Street", "CITY": "Daisetta", "STATE": "TX", "ZIPCODE": "77533", "GNIS_ID": "2655692", "FOOT_ID": null, "COMPLEX_ID": null, "GLOBALID": "{9B690788-F8CD-438A-A809-FBAB10B1AEB8}" }, "geometry": { "type": "Point", "coordinates": [ -94.64619673356097, 30.119560596375464 ] } },
{ "type": "Feature", "properties": { "OBJECTID": 131, "PERMANENT_IDENTIFIER": "{FE792DC5-470C-4D2B-84F2-3AB3BF8FCF21}", "SOURCE_FEATUREID": null, "SOURCE_DATASETID": "636484f8-5fce-4a8a-adcf-cb5f7dd563c1", "SOURCE_DATADESC": "740 TNMC Update 8\/8\/2017", "SOURCE_ORIGINATOR": "U.S. Geological Survey", "DATA_SECURITY": 5, "DISTRIBUTION_POLICY": "E4", "LOADDATE": "2017\/08\/08 22:37:30", "FTYPE": 740, "FCODE": 74026, "NAME": "Beaumont Fire and Rescue Station 2", "ISLANDMARK": 2, "POINTLOCATIONTYPE": 4, "ADMINTYPE": null, "ADDRESSBUILDINGNAME": null, "ADDRESS": "4495 Ironton Avenue", "CITY": "Beaumont", "STATE": "TX", "ZIPCODE": "77703", "GNIS_ID": "2655671", "FOOT_ID": null, "COMPLEX_ID": null, "GLOBALID": "{3D67F581-5204-432F-B9C5-8CAAB754FC88}" }, "geometry": { "type": "Point", "coordinates": [ -94.127960204729433, 30.121421813763146 ] } },
{ "type": "Feature", "properties": { "OBJECTID": 132, "PERMANENT_IDENTIFIER": "1216ec17-6502-4eaf-b8e3-727c0232dbc9", "SOURCE_FEATUREID": "9999999999", "SOURCE_DATASETID": "64a717ed-63e4-408b-9520-9e7719195ede", "SOURCE_DATADESC": "740 TNMC Update 7\/6\/2017", "SOURCE_ORIGINATOR": "U.S. Geological Survey", "DATA_SECURITY": 5, "DISTRIBUTION_POLICY": "E4", "LOADDATE": "2017\/07\/06 22:44:44", "FTYPE": 740, "FCODE": 74026, "NAME": "Groves Fire Department", "ISLANDMARK": 2, "POINTLOCATIONTYPE": 4, "ADMINTYPE": 6, "ADDRESSBUILDINGNAME": null, "ADDRESS": "6150 Short Street", "CITY": "Groves", "STATE": "TX", "ZIPCODE": "77619-4650", "GNIS_ID": "2334456", "FOOT_ID": " ", "COMPLEX_ID": null, "GLOBALID": "{99F95DAB-4410-41F9-93A5-937FFB02CFFC}" }, "geometry": { "type": "Point", "coordinates": [ -93.918258666987498, 29.945281983177242 ] } },
{ "type": "Feature", "properties": { "OBJECTID": 133, "PERMANENT_IDENTIFIER": "a06b5f1f-5dd9-44db-a6c3-3d396c017e01", "SOURCE_FEATUREID": "10414338", "SOURCE_DATASETID": "7619aa49-f284-4716-a186-c28fc4382c2d", "SOURCE_DATADESC": "740 TNMC Update 4\/13\/2018", "SOURCE_ORIGINATOR": "U.S. Geological Survey", "DATA_SECURITY": 5, "DISTRIBUTION_POLICY": "E4", "LOADDATE": "2018\/04\/13 14:20:59", "FTYPE": 740, "FCODE": 74026, "NAME": "Alabama - Coushatta Indian Nation Fire Department", "ISLANDMARK": 2, "POINTLOCATIONTYPE": 1, "ADMINTYPE": 0, "ADDRESSBUILDINGNAME": null, "ADDRESS": "571 State Park Road 56", "CITY": "Livingston", "STATE": "TX", "ZIPCODE": "77351", "GNIS_ID": "2655258", "FOOT_ID": " ", "COMPLEX_ID": null, "GLOBALID": "{07F9A9C0-6A75-4756-A8C4-42216438B980}" }, "geometry": { "type": "Point", "coordinates": [ -94.672813414780819, 30.714006423754007 ] } },
{ "type": "Feature", "properties": { "OBJECTID": 134, "PERMANENT_IDENTIFIER": "{E879E643-751A-44C7-B06D-6853720E0F20}", "SOURCE_FEATUREID": "10410156", "SOURCE_DATASETID": "ef52df0b-0245-46c6-89fa-e1c44b154e56", "SOURCE_DATADESC": "740 TNMC Update 7\/3\/2018", "SOURCE_ORIGINATOR": "U.S. Geological Survey", "DATA_SECURITY": 5, "DISTRIBUTION_POLICY": "E4", "LOADDATE": "2018\/07\/03 21:51:25", "FTYPE": 740, "FCODE": 74026, "NAME": "Baytown Fire and Rescue Station 4", "ISLANDMARK": 2, "POINTLOCATIONTYPE": 1, "ADMINTYPE": 6, "ADDRESSBUILDINGNAME": null, "ADDRESS": "910 East Fayle Street", "CITY": "Baytown", "STATE": "TX", "ZIPCODE": "77520", "GNIS_ID": "2334563", "FOOT_ID": null, "COMPLEX_ID": null, "GLOBALID": "{08AA89DD-951A-4DFE-933F-6340B159BC32}" }, "geometry": { "type": "Point", "coordinates": [ -94.954838000738562, 29.735452000858057 ] } },
{ "type": "Feature", "properties": { "OBJECTID": 135, "PERMANENT_IDENTIFIER": "{520752F1-DEF5-4F93-9F01-74E9844EF57D}", "SOURCE_FEATUREID": null, "SOURCE_DATASETID": "b924e741-eb87-41af-a812-b2fa183c75e7", "SOURCE_DATADESC": "740 TNMC Update 7\/2\/2018", "SOURCE_ORIGINATOR": "U.S. Geological Survey", "DATA_SECURITY": 5, "DISTRIBUTION_POLICY": "E4", "LOADDATE": "2018\/07\/02 21:22:44", "FTYPE": 740, "FCODE": 74026, "NAME": "Crosby Volunteer Fire Department Station 85", "ISLANDMARK": 2, "POINTLOCATIONTYPE": 1, "ADMINTYPE": null, "ADDRESSBUILDINGNAME": null, "ADDRESS": "2819 Farm to Market Road 1942", "CITY": "Crosby", "STATE": "TX", "ZIPCODE": "77532", "GNIS_ID": "2655495", "FOOT_ID": null, "COMPLEX_ID": null, "GLOBALID": "{F201FF66-7F24-45A6-A79D-46D3CC8D5AD9}" }, "geometry": { "type": "Point", "coordinates": [ -95.016111000205171, 29.870719999968973 ] } },
{ "type": "Feature", "properties": { "OBJECTID": 136, "PERMANENT_IDENTIFIER": "{5A33F5BA-87DA-400F-8C01-E677851E0F5E}", "SOURCE_FEATUREID": "10410155", "SOURCE_DATASETID": "ef52df0b-0245-46c6-89fa-e1c44b154e56", "SOURCE_DATADESC": "740 TNMC Update 7\/3\/2018", "SOURCE_ORIGINATOR": "U.S. Geological Survey", "DATA_SECURITY": 5, "DISTRIBUTION_POLICY": "E4", "LOADDATE": "2018\/07\/03 21:50:10", "FTYPE": 740, "FCODE": 74026, "NAME": "Baytown Fire and Rescue Station 3", "ISLANDMARK": 2, "POINTLOCATIONTYPE": 1, "ADMINTYPE": 6, "ADDRESSBUILDINGNAME": null, "ADDRESS": "3311 Massey Tompkins Road", "CITY": "Baytown", "STATE": "TX", "ZIPCODE": "77521", "GNIS_ID": "2334562", "FOOT_ID": null, "COMPLEX_ID": null, "GLOBALID": "{98D7EA93-F67B-4922-9C8C-93D8DE019518}" }, "geometry": { "type": "Point", "coordinates": [ -94.92739599953795, 29.767533999484229 ] } },
{ "type": "Feature", "properties": { "OBJECTID": 137, "PERMANENT_IDENTIFIER": "7718d7f9-0e0c-4393-a76b-2792de82e290", "SOURCE_FEATUREID": null, "SOURCE_DATASETID": "ef52df0b-0245-46c6-89fa-e1c44b154e56", "SOURCE_DATADESC": "740 TNMC Update 7\/3\/2018", "SOURCE_ORIGINATOR": "U.S. Geological Survey", "DATA_SECURITY": 0, "DISTRIBUTION_POLICY": "E4", "LOADDATE": "2018\/07\/03 21:55:01", "FTYPE": 740, "FCODE": 74026, "NAME": "Baytown Fire Station 6", "ISLANDMARK": 2, "POINTLOCATIONTYPE": 1, "ADMINTYPE": 0, "ADDRESSBUILDINGNAME": null, "ADDRESS": "10166 Pinehurst Drive", "CITY": "Baytown", "STATE": "TX", "ZIPCODE": "77521", "GNIS_ID": null, "FOOT_ID": null, "COMPLEX_ID": null, "GLOBALID": "{EE75FD94-AFC0-46D0-993F-ACCF87E02931}" }, "geometry": { "type": "Point", "coordinates": [ -94.906039237275962, 29.799871585268537 ] } },
{ "type": "Feature", "properties": { "OBJECTID": 138, "PERMANENT_IDENTIFIER": "b07aea24-5337-40af-88ad-efc63ee4d9f3", "SOURCE_FEATUREID": "10410442", "SOURCE_DATASETID": "b924e741-eb87-41af-a812-b2fa183c75e7", "SOURCE_DATADESC": "740 TNMC Update 7\/2\/2018", "SOURCE_ORIGINATOR": "U.S. Geological Survey", "DATA_SECURITY": 5, "DISTRIBUTION_POLICY": "E4", "LOADDATE": "2018\/07\/02 21:15:04", "FTYPE": 740, "FCODE": 74026, "NAME": "Dayton Fire Department", "ISLANDMARK": 2, "POINTLOCATIONTYPE": 1, "ADMINTYPE": 6, "ADDRESSBUILDINGNAME": null, "ADDRESS": "1001 Bill Moreau Drive", "CITY": "Dayton", "STATE": "TX", "ZIPCODE": "77535", "GNIS_ID": "2334321", "FOOT_ID": " ", "COMPLEX_ID": null, "GLOBALID": "{2BCFA09B-0D1A-4612-BA97-AFFBC24B0AD1}" }, "geometry": { "type": "Point", "coordinates": [ -94.900159836504926, 30.057579933957122 ] } },
{ "type": "Feature", "properties": { "OBJECTID": 139, "PERMANENT_IDENTIFIER": "{804452AB-6C2B-4825-AB05-2A6122F782C7}", "SOURCE_FEATUREID": null, "SOURCE_DATASETID": "b924e741-eb87-41af-a812-b2fa183c75e7", "SOURCE_DATADESC": "740 TNMC Update 7\/2\/2018", "SOURCE_ORIGINATOR": "U.S. Geological Survey", "DATA_SECURITY": 5, "DISTRIBUTION_POLICY": "E4", "LOADDATE": "2018\/07\/02 21:18:05", "FTYPE": 740, "FCODE": 74026, "NAME": "Crosby Volunteer Fire Department Station 84", "ISLANDMARK": 2, "POINTLOCATIONTYPE": 1, "ADMINTYPE": null, "ADDRESSBUILDINGNAME": null, "ADDRESS": "18524 Crosby Eastgate Road", "CITY": "Crosby", "STATE": "TX", "ZIPCODE": "77532", "GNIS_ID": "2655490", "FOOT_ID": null, "COMPLEX_ID": null, "GLOBALID": "{E896D99A-CA58-4CDC-95FB-6A577FDC8C2F}" }, "geometry": { "type": "Point", "coordinates": [ -95.024744999454995, 29.952248999973836 ] } },
{ "type": "Feature", "properties": { "OBJECTID": 140, "PERMANENT_IDENTIFIER": "c5482bf3-c861-4783-929a-3d92f0270c36", "SOURCE_FEATUREID": "10166193", "SOURCE_DATASETID": "5b86a923-8134-4424-ae7f-4613f0395dfb", "SOURCE_DATADESC": "740 TNMC Update 9\/19\/2018", "SOURCE_ORIGINATOR": "U.S. Geological Survey", "DATA_SECURITY": 5, "DISTRIBUTION_POLICY": "E4", "LOADDATE": "2018\/09\/19 04:12:05", "FTYPE": 740, "FCODE": 74026, "NAME": "Mont Belvieu Fire Department", "ISLANDMARK": 2, "POINTLOCATIONTYPE": 4, "ADMINTYPE": 6, "ADDRESSBUILDINGNAME": null, "ADDRESS": "11607 Eagle Drive", "CITY": "Mont Belvieu", "STATE": "TX", "ZIPCODE": "77580", "GNIS_ID": "2334362", "FOOT_ID": " ", "COMPLEX_ID": null, "GLOBALID": "{6764134D-B82D-432F-BDFB-203C63882CCA}" }, "geometry": { "type": "Point", "coordinates": [ -94.867267215689765, 29.857287644749118 ] } },
{ "type": "Feature", "properties": { "OBJECTID": 141, "PERMANENT_IDENTIFIER": "4e48e998-d842-4cc0-9606-4ac7a27aff5e", "SOURCE_FEATUREID": "10413449", "SOURCE_DATASETID": "40278515-dc3d-44e5-bd6e-198b469440d4", "SOURCE_DATADESC": "740 TNMC Update 10\/23\/2018", "SOURCE_ORIGINATOR": "U.S. Geological Survey", "DATA_SECURITY": 5, "DISTRIBUTION_POLICY": "E4", "LOADDATE": "2018\/10\/23 13:48:40", "FTYPE": 740, "FCODE": 74026, "NAME": "Orange Fire Department Station 1", "ISLANDMARK": 2, "POINTLOCATIONTYPE": 4, "ADMINTYPE": 6, "ADDRESSBUILDINGNAME": null, "ADDRESS": "501 7th Street", "CITY": "Orange", "STATE": "TX", "ZIPCODE": "77630", "GNIS_ID": null, "FOOT_ID": " ", "COMPLEX_ID": null, "GLOBALID": "{BC68B94C-C023-4992-89FC-568D905D7640}" }, "geometry": { "type": "Point", "coordinates": [ -93.737176000723466, 30.094326999774953 ] } },
{ "type": "Feature", "properties": { "OBJECTID": 142, "PERMANENT_IDENTIFIER": "2ca2ad37-3d28-4509-8270-1655bf535063", "SOURCE_FEATUREID": "10415250", "SOURCE_DATASETID": "81d7f4d1-0ed9-485e-9ea1-899176c3900d", "SOURCE_DATADESC": "740 TNMC Update 10\/18\/2018", "SOURCE_ORIGINATOR": "U.S. Geological Survey", "DATA_SECURITY": 5, "DISTRIBUTION_POLICY": "E4", "LOADDATE": "2018\/10\/18 19:42:44", "FTYPE": 740, "FCODE": 74026, "NAME": "Livingston Volunteer Fire Department Station 1", "ISLANDMARK": 2, "POINTLOCATIONTYPE": 4, "ADMINTYPE": 0, "ADDRESSBUILDINGNAME": null, "ADDRESS": "119 West Abbey Street", "CITY": "Livingston", "STATE": "TX", "ZIPCODE": "77351", "GNIS_ID": "2655189", "FOOT_ID": " ", "COMPLEX_ID": null, "GLOBALID": "{1E3B6072-B165-45F6-A040-D16D3FD7125E}" }, "geometry": { "type": "Point", "coordinates": [ -94.933822000006529, 30.70909699943639 ] } },
{ "type": "Feature", "properties": { "OBJECTID": 143, "PERMANENT_IDENTIFIER": "6ec2a1d9-e7ea-493a-aa70-eb0529b25765", "SOURCE_FEATUREID": "10414360", "SOURCE_DATASETID": "d290a41c-ebb8-494a-9a4c-6f87a3b85f72", "SOURCE_DATADESC": "740 TNMC Update 10\/2\/2018", "SOURCE_ORIGINATOR": "U.S. Geological Survey", "DATA_SECURITY": 5, "DISTRIBUTION_POLICY": "E4", "LOADDATE": "2018\/10\/02 20:05:03", "FTYPE": 740, "FCODE": 74026, "NAME": "Corrigan Volunteer Fire Department", "ISLANDMARK": 0, "POINTLOCATIONTYPE": 4, "ADMINTYPE": 0, "ADDRESSBUILDINGNAME": null, "ADDRESS": "1001 North Home Street", "CITY": "Corrigan", "STATE": "TX", "ZIPCODE": "75939", "GNIS_ID": "2655271", "FOOT_ID": " ", "COMPLEX_ID": null, "GLOBALID": "{D3323F44-507D-44FF-8A21-AADC315E6B87}" }, "geometry": { "type": "Point", "coordinates": [ -94.825062001970934, 31.013030204329048 ] } },
{ "type": "Feature", "properties": { "OBJECTID": 144, "PERMANENT_IDENTIFIER": "319187eb-b410-4948-b5ee-d94edca5d7b0", "SOURCE_FEATUREID": "10410197", "SOURCE_DATASETID": "40278515-dc3d-44e5-bd6e-198b469440d4", "SOURCE_DATADESC": "740 TNMC Update 10\/23\/2018", "SOURCE_ORIGINATOR": "U.S. Geological Survey", "DATA_SECURITY": 5, "DISTRIBUTION_POLICY": "E4", "LOADDATE": "2018\/10\/23 15:00:43", "FTYPE": 740, "FCODE": 74026, "NAME": "Nederland Fire - Rescue Department", "ISLANDMARK": 2, "POINTLOCATIONTYPE": 1, "ADMINTYPE": 6, "ADDRESSBUILDINGNAME": null, "ADDRESS": "1404 Boston Avenue", "CITY": "Nederland", "STATE": "TX", "ZIPCODE": "77627", "GNIS_ID": "2334465", "FOOT_ID": " ", "COMPLEX_ID": null, "GLOBALID": "{30C7652F-7C92-410E-B41E-D988B146B5BD}" }, "geometry": { "type": "Point", "coordinates": [ -93.992977999969767, 29.974346999602965 ] } },
{ "type": "Feature", "properties": { "OBJECTID": 145, "PERMANENT_IDENTIFIER": "1b0d56a4-633f-4685-aabb-cf51067e6056", "SOURCE_FEATUREID": null, "SOURCE_DATASETID": "4a1fe5a4-643b-4dc6-944d-0236824ef828", "SOURCE_DATADESC": "740 TNMC Update 12\/17\/2018", "SOURCE_ORIGINATOR": "U.S. Geological Survey", "DATA_SECURITY": 0, "DISTRIBUTION_POLICY": "E4", "LOADDATE": "2018\/12\/17 15:29:14", "FTYPE": 740, "FCODE": 74026, "NAME": "Orange County Emergency Services District 1", "ISLANDMARK": 2, "POINTLOCATIONTYPE": 1, "ADMINTYPE": 0, "ADDRESSBUILDINGNAME": null, "ADDRESS": "2351 Highway 12", "CITY": "Vidor", "STATE": "TX", "ZIPCODE": "77662", "GNIS_ID": null, "FOOT_ID": null, "COMPLEX_ID": null, "GLOBALID": "{AE2495C7-0B6C-4BFF-8551-B5AAFA0F607C}" }, "geometry": { "type": "Point", "coordinates": [ -93.992213857056484, 30.142751123196941 ] } },
{ "type": "Feature", "properties": { "OBJECTID": 146, "PERMANENT_IDENTIFIER": "b90adbc7-dd7c-42a2-9ae1-de40bd9fdc5f", "SOURCE_FEATUREID": "10410201", "SOURCE_DATASETID": "615dd1bd-68b9-4055-acbb-277fbf481999", "SOURCE_DATADESC": "740 TNMC Update 12\/13\/2018", "SOURCE_ORIGINATOR": "U.S. Geological Survey", "DATA_SECURITY": 5, "DISTRIBUTION_POLICY": "E4", "LOADDATE": "2018\/12\/13 00:28:50", "FTYPE": 740, "FCODE": 74026, "NAME": "Port Neches Fire Department", "ISLANDMARK": 2, "POINTLOCATIONTYPE": 4, "ADMINTYPE": 6, "ADDRESSBUILDINGNAME": null, "ADDRESS": "606 Magnolia Avenue", "CITY": "Port Neches", "STATE": "TX", "ZIPCODE": "77651", "GNIS_ID": "2334522", "FOOT_ID": " ", "COMPLEX_ID": null, "GLOBALID": "{94B5A7DC-C059-4437-9DE7-13B892C30D88}" }, "geometry": { "type": "Point", "coordinates": [ -93.954091334488709, 29.976014873078036 ] } },
{ "type": "Feature", "properties": { "OBJECTID": 147, "PERMANENT_IDENTIFIER": "{6B9B26C3-821C-4184-A546-F03143DC5866}", "SOURCE_FEATUREID": null, "SOURCE_DATASETID": "5afb643c-2d9b-4a24-bf8d-f2a5cc7f88ae", "SOURCE_DATADESC": "740 TNMC Update 2\/5\/2019", "SOURCE_ORIGINATOR": "U.S. Geological Survey", "DATA_SECURITY": 5, "DISTRIBUTION_POLICY": "E4", "LOADDATE": "2019\/02\/05 11:41:25", "FTYPE": 740, "FCODE": 74026, "NAME": "Old River Winffree Volunteer Fire Department", "ISLANDMARK": 2, "POINTLOCATIONTYPE": 4, "ADMINTYPE": null, "ADDRESSBUILDINGNAME": null, "ADDRESS": "4822 North Farm to Market Road 565", "CITY": "Old River-Winfree", "STATE": "TX", "ZIPCODE": "77523", "GNIS_ID": "2655364", "FOOT_ID": null, "COMPLEX_ID": null, "GLOBALID": "{4E5D0117-9F95-42D2-971F-4747A5560EE2}" }, "geometry": { "type": "Point", "coordinates": [ -94.833013000432146, 29.866738000329889 ] } },
{ "type": "Feature", "properties": { "OBJECTID": 148, "PERMANENT_IDENTIFIER": "8c0dd02e-d6fc-4688-9fbb-cd56df11bb9b", "SOURCE_FEATUREID": "10410082", "SOURCE_DATASETID": "4c842ebe-be04-457e-ba78-7c98036e20d7", "SOURCE_DATADESC": "740 TNMC Update 2\/14\/2019", "SOURCE_ORIGINATOR": "U.S. Geological Survey", "DATA_SECURITY": 5, "DISTRIBUTION_POLICY": "E4", "LOADDATE": "2019\/02\/14 21:39:45", "FTYPE": 740, "FCODE": 74026, "NAME": "Lumberton Fire Department and Emergency Medical Services - Station 2", "ISLANDMARK": 2, "POINTLOCATIONTYPE": 4, "ADMINTYPE": 6, "ADDRESSBUILDINGNAME": null, "ADDRESS": "8890 Keith Road", "CITY": "Lumberton", "STATE": "TX", "ZIPCODE": "77657", "GNIS_ID": "2334317", "FOOT_ID": " ", "COMPLEX_ID": null, "GLOBALID": "{F777D219-7367-4B64-9D03-9E6A567BF1E9}" }, "geometry": { "type": "Point", "coordinates": [ -94.194208999504255, 30.200700999516634 ] } },
{ "type": "Feature", "properties": { "OBJECTID": 149, "PERMANENT_IDENTIFIER": "3caff9c7-2fb9-4118-8359-ac12eb97bf87", "SOURCE_FEATUREID": "10409973", "SOURCE_DATASETID": "afa6b84e-2e84-486f-b315-99f28d7469c3", "SOURCE_DATADESC": "740 TNMC Update 6\/6\/2019", "SOURCE_ORIGINATOR": "U.S. Geological Survey", "DATA_SECURITY": 5, "DISTRIBUTION_POLICY": "E4", "LOADDATE": "2019\/06\/06 22:43:22", "FTYPE": 740, "FCODE": 74026, "NAME": "High Island Volunteer Fire Department", "ISLANDMARK": 2, "POINTLOCATIONTYPE": 1, "ADMINTYPE": 6, "ADDRESSBUILDINGNAME": null, "ADDRESS": "2044 7th Street", "CITY": "High Island", "STATE": "TX", "ZIPCODE": "77623", "GNIS_ID": "2334489", "FOOT_ID": " ", "COMPLEX_ID": null, "GLOBALID": "{E6938E19-B602-47F6-9C32-C01940CD95F6}" }, "geometry": { "type": "Point", "coordinates": [ -94.39296599922038, 29.563421999377713 ] } },
{ "type": "Feature", "properties": { "OBJECTID": 150, "PERMANENT_IDENTIFIER": "46634842-2fda-47ae-a87f-e61d78f91371", "SOURCE_FEATUREID": "10166310", "SOURCE_DATASETID": "afa6b84e-2e84-486f-b315-99f28d7469c3", "SOURCE_DATADESC": "740 TNMC Update 6\/6\/2019", "SOURCE_ORIGINATOR": "U.S. Geological Survey", "DATA_SECURITY": 5, "DISTRIBUTION_POLICY": "E4", "LOADDATE": "2019\/06\/06 22:50:27", "FTYPE": 740, "FCODE": 74026, "NAME": "Crystal Beach Volunteer Fire Department and Emergency Medical Services", "ISLANDMARK": 2, "POINTLOCATIONTYPE": 1, "ADMINTYPE": 6, "ADDRESSBUILDINGNAME": null, "ADDRESS": "930 Noble Carl Drive", "CITY": "Crystal Beach", "STATE": "TX", "ZIPCODE": "77550", "GNIS_ID": "2334375", "FOOT_ID": " ", "COMPLEX_ID": null, "GLOBALID": "{51A51868-9B61-4347-B210-ADB59314349E}" }, "geometry": { "type": "Point", "coordinates": [ -94.63873290585137, 29.455122886376994 ] } },
{ "type": "Feature", "properties": { "OBJECTID": 151, "PERMANENT_IDENTIFIER": "5a86047d-5527-4c2f-9099-557b35c1b08b", "SOURCE_FEATUREID": "10166702", "SOURCE_DATASETID": "afa6b84e-2e84-486f-b315-99f28d7469c3", "SOURCE_DATADESC": "740 TNMC Update 6\/6\/2019", "SOURCE_ORIGINATOR": "U.S. Geological Survey", "DATA_SECURITY": 5, "DISTRIBUTION_POLICY": "E4", "LOADDATE": "2019\/06\/06 22:40:54", "FTYPE": 740, "FCODE": 74026, "NAME": "Port Bolivar Volunteer Fire Department", "ISLANDMARK": 2, "POINTLOCATIONTYPE": 1, "ADMINTYPE": 6, "ADDRESSBUILDINGNAME": null, "ADDRESS": "1806 Broadway Street", "CITY": "Port Bolivar", "STATE": "TX", "ZIPCODE": "77650", "GNIS_ID": "2334347", "FOOT_ID": " ", "COMPLEX_ID": null, "GLOBALID": "{7603B835-B550-4572-9872-439234325A36}" }, "geometry": { "type": "Point", "coordinates": [ -94.760215557304704, 29.382018482925233 ] } },
{ "type": "Feature", "properties": { "OBJECTID": 152, "PERMANENT_IDENTIFIER": "{69C52BE6-DB87-4E8E-81FD-3A9C5D79AA71}", "SOURCE_FEATUREID": null, "SOURCE_DATASETID": "9499314e-4f03-4e14-b3b6-11605c2bc4d2", "SOURCE_DATADESC": "740 TNMC Update 6\/18\/2019", "SOURCE_ORIGINATOR": "U.S. Geological Survey", "DATA_SECURITY": 5, "DISTRIBUTION_POLICY": "E4", "LOADDATE": "2019\/06\/18 04:50:32", "FTYPE": 740, "FCODE": 74026, "NAME": "Beach City Volunteer Fire Department", "ISLANDMARK": 2, "POINTLOCATIONTYPE": 1, "ADMINTYPE": null, "ADDRESSBUILDINGNAME": null, "ADDRESS": "12723 Farm to Market Road 2354", "CITY": "Beach City", "STATE": "TX", "ZIPCODE": "77523", "GNIS_ID": "2655544", "FOOT_ID": null, "COMPLEX_ID": null, "GLOBALID": "{93391B39-1EB4-4FCF-8BE4-11E25C16CBAB}" }, "geometry": { "type": "Point", "coordinates": [ -94.854264000442498, 29.722174000388492 ] } }
]
}
