{
"type": "FeatureCollection",
"name": "Hospitals",
"crs": { "type": "name", "properties": { "name": "urn:ogc:def:crs:OGC:1.3:CRS84" } },
"features": [
{ "type": "Feature", "properties": { "OBJECTID": 1, "ID": "0006277514", "NAME": "BAYSIDE COMMUNITY HOSPITAL", "ADDRESS": "200 HOSPITAL DRIVE", "CITY": "ANAHUAC", "STATE": "TX", "ZIP": "77514", "ZIP4": "NOT AVAILABLE", "TELEPHONE": "(409) 267-3143", "TYPE": "GENERAL ACUTE CARE", "STATUS": "OPEN", "POPULATION": 14, "COUNTY": "CHAMBERS", "COUNTYFIPS": "48071", "COUNTRY": "USA", "LATITUDE": 29.752557402000036, "LONGITUDE": -94.687446672999954, "NAICS_CODE": "622110", "NAICS_DESC": "GENERAL MEDICAL AND SURGICAL HOSPITALS", "SOURCE": "https:\/\/hhs.texas.gov\/doing-business-hhs\/provider-portals\/health-care-facilities-regulation", "SOURCEDATE": "2019\/09\/03 00:00:00", "VAL_METHOD": "IMAGERY\/OTHER", "VAL_DATE": "2014\/02\/10 00:00:00", "WEBSITE": "http:\/\/chambershealth.org\/", "STATE_ID": "NOT AVAILABLE", "ALT_NAME": "NOT AVAILABLE", "ST_FIPS": "48", "OWNER": "GOVERNMENT - LOCAL", "TTL_STAFF": -999, "BEDS": 14.0, "TRAUMA": "LEVEL IV", "HELIPAD": "Y" }, "geometry": { "type": "Point", "coordinates": [ -94.687446673416773, 29.752557402290673 ] } },
{ "type": "Feature", "properties": { "OBJECTID": 2, "ID": "0031375951", "NAME": "CHRISTUS JASPER MEMORIAL HOSPITAL", "ADDRESS": "1275 MARVIN HANCOCK DRIVE", "CITY": "JASPER", "STATE": "TX", "ZIP": "75951", "ZIP4": "NOT AVAILABLE", "TELEPHONE": "(409) 384-5461", "TYPE": "GENERAL ACUTE CARE", "STATUS": "OPEN", "POPULATION": 59, "COUNTY": "JASPER", "COUNTYFIPS": "48241", "COUNTRY": "USA", "LATITUDE": 30.907894530000078, "LONGITUDE": -94.009553305999987, "NAICS_CODE": "622110", "NAICS_DESC": "GENERAL MEDICAL AND SURGICAL HOSPITALS", "SOURCE": "https:\/\/hhs.texas.gov\/doing-business-hhs\/provider-portals\/health-care-facilities-regulation", "SOURCEDATE": "2019\/09\/03 00:00:00", "VAL_METHOD": "IMAGERY", "VAL_DATE": "2014\/02\/10 00:00:00", "WEBSITE": "http:\/\/www.christusjasper.org", "STATE_ID": "NOT AVAILABLE", "ALT_NAME": "NOT AVAILABLE", "ST_FIPS": "48", "OWNER": "NON-PROFIT", "TTL_STAFF": -999, "BEDS": 59.0, "TRAUMA": "LEVEL IV", "HELIPAD": "Y" }, "geometry": { "type": "Point", "coordinates": [ -94.009553305757208, 30.907894530121609 ] } },
{ "type": "Feature", "properties": { "OBJECTID": 3, "ID": "0034277575", "NAME": "LIBERTY-DAYTON REGIONAL MEDICAL CENTER", "ADDRESS": "1353 NORTH TRAVIS STREET", "CITY": "LIBERTY", "STATE": "TX", "ZIP": "77575", "ZIP4": "NOT AVAILABLE", "TELEPHONE": "(936) 336-7316", "TYPE": "CRITICAL ACCESS", "STATUS": "OPEN", "POPULATION": 25, "COUNTY": "LIBERTY", "COUNTYFIPS": "48291", "COUNTRY": "USA", "LATITUDE": 30.06882336700005, "LONGITUDE": -94.798491350999939, "NAICS_CODE": "622110", "NAICS_DESC": "GENERAL MEDICAL AND SURGICAL HOSPITALS", "SOURCE": "https:\/\/hhs.texas.gov\/doing-business-hhs\/provider-portals\/health-care-facilities-regulation", "SOURCEDATE": "2019\/09\/03 00:00:00", "VAL_METHOD": "IMAGERY", "VAL_DATE": "2014\/02\/10 00:00:00", "WEBSITE": "http:\/\/www.libertydaytonrmc.com", "STATE_ID": "NOT AVAILABLE", "ALT_NAME": "NOT AVAILABLE", "ST_FIPS": "48", "OWNER": "PROPRIETARY", "TTL_STAFF": -999, "BEDS": 25.0, "TRAUMA": "NOT AVAILABLE", "HELIPAD": "Y" }, "geometry": { "type": "Point", "coordinates": [ -94.798491351324557, 30.068823367224944 ] } },
{ "type": "Feature", "properties": { "OBJECTID": 4, "ID": "0007377726", "NAME": "CHRISTUS SOUTHEAST TEXAS - ST ELIZABETH", "ADDRESS": "2830 CALDER AVENUE", "CITY": "BEAUMONT", "STATE": "TX", "ZIP": "77726", "ZIP4": "NOT AVAILABLE", "TELEPHONE": "(409) 892-7171", "TYPE": "GENERAL ACUTE CARE", "STATUS": "OPEN", "POPULATION": 431, "COUNTY": "JEFFERSON", "COUNTYFIPS": "48245", "COUNTRY": "USA", "LATITUDE": 30.087341816000048, "LONGITUDE": -94.131808468999964, "NAICS_CODE": "622110", "NAICS_DESC": "GENERAL MEDICAL AND SURGICAL HOSPITALS", "SOURCE": "https:\/\/hhs.texas.gov\/doing-business-hhs\/provider-portals\/health-care-facilities-regulation", "SOURCEDATE": "2019\/09\/03 00:00:00", "VAL_METHOD": "IMAGERY\/OTHER", "VAL_DATE": "2014\/02\/10 00:00:00", "WEBSITE": "http:\/\/www.christushospital.org\/christushospital-stelizabethbeaumont", "STATE_ID": "NOT AVAILABLE", "ALT_NAME": "NOT AVAILABLE", "ST_FIPS": "48", "OWNER": "NON-PROFIT", "TTL_STAFF": -999, "BEDS": 431.0, "TRAUMA": "LEVEL III", "HELIPAD": "Y" }, "geometry": { "type": "Point", "coordinates": [ -94.131808468828979, 30.087341815725893 ] } },
{ "type": "Feature", "properties": { "OBJECTID": 5, "ID": "0043577640", "NAME": "THE MEDICAL CENTER OF SOUTHEAST TEXAS", "ADDRESS": "2555 JIMMY JOHNSON BOULEVARD", "CITY": "PORT ARTHUR", "STATE": "TX", "ZIP": "77640", "ZIP4": "NOT AVAILABLE", "TELEPHONE": "(409) 853-5902", "TYPE": "GENERAL ACUTE CARE", "STATUS": "OPEN", "POPULATION": 224, "COUNTY": "JEFFERSON", "COUNTYFIPS": "48245", "COUNTRY": "USA", "LATITUDE": 29.935502026000052, "LONGITUDE": -93.989534533999972, "NAICS_CODE": "622110", "NAICS_DESC": "GENERAL MEDICAL AND SURGICAL HOSPITALS", "SOURCE": "https:\/\/hhs.texas.gov\/doing-business-hhs\/provider-portals\/health-care-facilities-regulation", "SOURCEDATE": "2019\/09\/03 00:00:00", "VAL_METHOD": "IMAGERY", "VAL_DATE": "2014\/02\/10 00:00:00", "WEBSITE": "http:\/\/www.medicalcentersetexas.com", "STATE_ID": "NOT AVAILABLE", "ALT_NAME": "NOT AVAILABLE", "ST_FIPS": "48", "OWNER": "PROPRIETARY", "TTL_STAFF": -999, "BEDS": 224.0, "TRAUMA": "LEVEL IV", "HELIPAD": "Y" }, "geometry": { "type": "Point", "coordinates": [ -93.989534533805227, 29.93550202562367 ] } },
{ "type": "Feature", "properties": { "OBJECTID": 6, "ID": "0048175972", "NAME": "CHI ST LUKES HEALTH MEMORIAL SAN AUGUSTINE", "ADDRESS": "511 E HOSPITAL STREET", "CITY": "SAN AUGUSTINE", "STATE": "TX", "ZIP": "75972", "ZIP4": "NOT AVAILABLE", "TELEPHONE": "(936) 275-3446", "TYPE": "GENERAL ACUTE CARE", "STATUS": "OPEN", "POPULATION": 18, "COUNTY": "SAN AUGUSTINE", "COUNTYFIPS": "48405", "COUNTRY": "USA", "LATITUDE": 31.532615865000025, "LONGITUDE": -94.103006926999967, "NAICS_CODE": "622110", "NAICS_DESC": "GENERAL MEDICAL AND SURGICAL HOSPITALS", "SOURCE": "https:\/\/hhs.texas.gov\/doing-business-hhs\/provider-portals\/health-care-facilities-regulation", "SOURCEDATE": "2019\/09\/03 00:00:00", "VAL_METHOD": "IMAGERY\/OTHER", "VAL_DATE": "2014\/02\/10 00:00:00", "WEBSITE": "http:\/\/www.memorialhealth.org", "STATE_ID": "NOT AVAILABLE", "ALT_NAME": "NOT AVAILABLE", "ST_FIPS": "48", "OWNER": "NON-PROFIT", "TTL_STAFF": -999, "BEDS": 18.0, "TRAUMA": "NOT AVAILABLE", "HELIPAD": "Y" }, "geometry": { "type": "Point", "coordinates": [ -94.103006926734679, 31.532615865359396 ] } },
{ "type": "Feature", "properties": { "OBJECTID": 7, "ID": "0000000052", "NAME": "CHRISTUS SOUTHEAST TEXAS - ST MARY", "ADDRESS": "3600 GATES BLVD", "CITY": "PORT ARTHUR", "STATE": "TX", "ZIP": "77642", "ZIP4": "NOT AVAILABLE", "TELEPHONE": "(409) 985-7431", "TYPE": "GENERAL ACUTE CARE", "STATUS": "OPEN", "POPULATION": 227, "COUNTY": "JEFFERSON", "COUNTYFIPS": "48245", "COUNTRY": "USA", "LATITUDE": 29.909424677000061, "LONGITUDE": -93.924439832999951, "NAICS_CODE": "622110", "NAICS_DESC": "GENERAL MEDICAL AND SURGICAL HOSPITALS", "SOURCE": "https:\/\/hhs.texas.gov\/doing-business-hhs\/provider-portals\/health-care-facilities-regulation", "SOURCEDATE": "2019\/09\/03 00:00:00", "VAL_METHOD": "IMAGERY\/OTHER", "VAL_DATE": "2015\/06\/10 00:00:00", "WEBSITE": "http:\/\/www.christushospital.org\/", "STATE_ID": "NOT AVAILABLE", "ALT_NAME": "NOT AVAILABLE", "ST_FIPS": "48", "OWNER": "NON-PROFIT", "TTL_STAFF": -999, "BEDS": 227.0, "TRAUMA": "LEVEL IV", "HELIPAD": "Y" }, "geometry": { "type": "Point", "coordinates": [ -93.924439833422014, 29.90942467718433 ] } },
{ "type": "Feature", "properties": { "OBJECTID": 8, "ID": "0076777520", "NAME": "HOUSTON METHODIST SAN JACINTO HOSPITAL ALEXANDER CAMPUS", "ADDRESS": "1700 JAMES BOWIE DRIVE", "CITY": "BAYTOWN", "STATE": "TX", "ZIP": "77520", "ZIP4": "NOT AVAILABLE", "TELEPHONE": "(281) 420-8765", "TYPE": "GENERAL ACUTE CARE", "STATUS": "OPEN", "POPULATION": 182, "COUNTY": "HARRIS", "COUNTYFIPS": "48201", "COUNTRY": "USA", "LATITUDE": 29.74762021500004, "LONGITUDE": -94.945476815999939, "NAICS_CODE": "622110", "NAICS_DESC": "GENERAL MEDICAL AND SURGICAL HOSPITALS", "SOURCE": "https:\/\/hhs.texas.gov\/doing-business-hhs\/provider-portals\/health-care-facilities-regulation", "SOURCEDATE": "2019\/09\/03 00:00:00", "VAL_METHOD": "IMAGERY", "VAL_DATE": "2017\/01\/10 00:00:00", "WEBSITE": "http:\/\/www.houstonmethodist.org\/locations\/san-jacinto-baytown\/", "STATE_ID": "NOT AVAILABLE", "ALT_NAME": "NOT AVAILABLE", "ST_FIPS": "48", "OWNER": "NON-PROFIT", "TTL_STAFF": -999, "BEDS": 182.0, "TRAUMA": "NOT AVAILABLE", "HELIPAD": "Y" }, "geometry": { "type": "Point", "coordinates": [ -94.945476816164557, 29.747620215385979 ] } },
{ "type": "Feature", "properties": { "OBJECTID": 9, "ID": "0036777864", "NAME": "CHI ST JOSEPH HEALTH MADISON HOSPITAL", "ADDRESS": "100 W CROSS STREET", "CITY": "MADISONVILLE", "STATE": "TX", "ZIP": "77864", "ZIP4": "NOT AVAILABLE", "TELEPHONE": "NOT AVAILABLE", "TYPE": "CRITICAL ACCESS", "STATUS": "OPEN", "POPULATION": 25, "COUNTY": "MADISON", "COUNTYFIPS": "48313", "COUNTRY": "USA", "LATITUDE": 30.942081999000038, "LONGITUDE": -95.911105909999947, "NAICS_CODE": "622110", "NAICS_DESC": "GENERAL MEDICAL AND SURGICAL HOSPITALS", "SOURCE": "https:\/\/hhs.texas.gov\/doing-business-hhs\/provider-portals\/health-care-facilities-regulation", "SOURCEDATE": "2019\/09\/03 00:00:00", "VAL_METHOD": "IMAGERY\/OTHER", "VAL_DATE": "2014\/02\/10 00:00:00", "WEBSITE": "http:\/\/www.st-joseph.org\/landing.cfm?id=26", "STATE_ID": "NOT AVAILABLE", "ALT_NAME": "MADISON ST. JOSEPH HEALTH CENTER", "ST_FIPS": "48", "OWNER": "NON-PROFIT", "TTL_STAFF": -999, "BEDS": 25.0, "TRAUMA": "LEVEL IV", "HELIPAD": "Y" }, "geometry": { "type": "Point", "coordinates": [ -95.91110590981198, 30.942081998669526 ] } },
{ "type": "Feature", "properties": { "OBJECTID": 10, "ID": "0040077627", "NAME": "MID-JEFFERSON EXTENDED CARE HOSPITAL", "ADDRESS": "2600 HIGHWAY 365", "CITY": "NEDERLAND", "STATE": "TX", "ZIP": "77627", "ZIP4": "NOT AVAILABLE", "TELEPHONE": "(409) 726-8700", "TYPE": "LONG TERM CARE", "STATUS": "OPEN", "POPULATION": 48, "COUNTY": "JEFFERSON", "COUNTYFIPS": "48245", "COUNTRY": "USA", "LATITUDE": 29.955598575000067, "LONGITUDE": -93.986876582999969, "NAICS_CODE": "622310", "NAICS_DESC": "SPECIALTY (EXCEPT PSYCHIATRIC AND SUBSTANCE ABUSE) HOSPITALS", "SOURCE": "https:\/\/hhs.texas.gov\/doing-business-hhs\/provider-portals\/health-care-facilities-regulation", "SOURCEDATE": "2019\/09\/03 00:00:00", "VAL_METHOD": "IMAGERY", "VAL_DATE": "2014\/02\/10 00:00:00", "WEBSITE": "http:\/\/www.midjeffextendedcare.com\/index.php", "STATE_ID": "NOT AVAILABLE", "ALT_NAME": "NOT AVAILABLE", "ST_FIPS": "48", "OWNER": "PROPRIETARY", "TTL_STAFF": -999, "BEDS": 48.0, "TRAUMA": "NOT AVAILABLE", "HELIPAD": "Y" }, "geometry": { "type": "Point", "coordinates": [ -93.986876583271211, 29.95559857527293 ] } },
{ "type": "Feature", "properties": { "OBJECTID": 11, "ID": "0005277707", "NAME": "CHRISTUS SOUTHEAST TEXAS ORTHOPEDIC SPECIALTY CENTER", "ADDRESS": "3650 LAUREL AVENUE", "CITY": "BEAUMONT", "STATE": "TX", "ZIP": "77707", "ZIP4": "NOT AVAILABLE", "TELEPHONE": "(409) 838-0346", "TYPE": "SPECIAL", "STATUS": "OPEN", "POPULATION": 6, "COUNTY": "JEFFERSON", "COUNTYFIPS": "48245", "COUNTRY": "USA", "LATITUDE": 30.083382783000047, "LONGITUDE": -94.139808401999971, "NAICS_CODE": "622310", "NAICS_DESC": "SPECIALTY (EXCEPT PSYCHIATRIC AND SUBSTANCE ABUSE) HOSPITALS", "SOURCE": "https:\/\/hhs.texas.gov\/doing-business-hhs\/provider-portals\/health-care-facilities-regulation", "SOURCEDATE": "2019\/09\/03 00:00:00", "VAL_METHOD": "IMAGERY", "VAL_DATE": "2014\/01\/21 00:00:00", "WEBSITE": "http:\/\/beaumontbone.com\/", "STATE_ID": "NOT AVAILABLE", "ALT_NAME": "BEAUMONT BONE AND JOINT INSTITUTE", "ST_FIPS": "48", "OWNER": "PROPRIETARY", "TTL_STAFF": -999, "BEDS": 6.0, "TRAUMA": "NOT AVAILABLE", "HELIPAD": "N" }, "geometry": { "type": "Point", "coordinates": [ -94.139808402116998, 30.083382783167686 ] } },
{ "type": "Feature", "properties": { "OBJECTID": 12, "ID": "0143677706", "NAME": "THE MEDICAL CENTER OF SOUTHEAST TEXAS BEAUMONT CAMPUS", "ADDRESS": "6025 METROPOLITAN DRIVE", "CITY": "BEAUMONT", "STATE": "TX", "ZIP": "77706", "ZIP4": "2407", "TELEPHONE": "NOT AVAILABLE", "TYPE": "GENERAL ACUTE CARE", "STATUS": "OPEN", "POPULATION": 17, "COUNTY": "JEFFERSON", "COUNTYFIPS": "48245", "COUNTRY": "USA", "LATITUDE": 30.112141101000077, "LONGITUDE": -94.169756169999971, "NAICS_CODE": "622110", "NAICS_DESC": "GENERAL MEDICAL AND SURGICAL HOSPITALS", "SOURCE": "https:\/\/hhs.texas.gov\/doing-business-hhs\/provider-portals\/health-care-facilities-regulation", "SOURCEDATE": "2019\/09\/03 00:00:00", "VAL_METHOD": "IMAGERY\/OTHER", "VAL_DATE": "2019\/04\/16 00:00:00", "WEBSITE": "http:\/\/www.medicalcentersetexas.com\/victory\/", "STATE_ID": "NOT AVAILABLE", "ALT_NAME": "VICTORY MEDICAL CENTER BEAUMONT", "ST_FIPS": "48", "OWNER": "PROPRIETARY", "TTL_STAFF": -999, "BEDS": 17.0, "TRAUMA": "NOT AVAILABLE", "HELIPAD": "N" }, "geometry": { "type": "Point", "coordinates": [ -94.169756170259319, 30.112141100645857 ] } },
{ "type": "Feature", "properties": { "OBJECTID": 13, "ID": "0076877520", "NAME": "KINDRED HOSPITAL BAYTOWN", "ADDRESS": "1700 JAMES BOWIE DRIVE, 3RD FLOOR", "CITY": "BAYTOWN", "STATE": "TX", "ZIP": "77520", "ZIP4": "NOT AVAILABLE", "TELEPHONE": "(281) 420-7800", "TYPE": "LONG TERM CARE", "STATUS": "CLOSED", "POPULATION": 31, "COUNTY": "HARRIS", "COUNTYFIPS": "48201", "COUNTRY": "USA", "LATITUDE": 29.747667804000059, "LONGITUDE": -94.94611926999994, "NAICS_CODE": "622310", "NAICS_DESC": "EXTENDED CARE HOSPITALS (EXCEPT MENTAL, SUBSTANCE ABUSE)", "SOURCE": "http:\/\/www.dshs.texas.gov\/facilities\/find-a-licensee.aspx", "SOURCEDATE": "2017\/01\/09 00:00:00", "VAL_METHOD": "IMAGERY\/OTHER", "VAL_DATE": "2020\/05\/08 00:00:00", "WEBSITE": "http:\/\/www.khbayareahouston.com\/", "STATE_ID": "NOT AVAILABLE", "ALT_NAME": "NOT AVAILABLE", "ST_FIPS": "48", "OWNER": "PROPRIETARY", "TTL_STAFF": -999, "BEDS": 31.0, "TRAUMA": "NOT AVAILABLE", "HELIPAD": "Y" }, "geometry": { "type": "Point", "coordinates": [ -94.946119269696197, 29.747667803875132 ] } },
{ "type": "Feature", "properties": { "OBJECTID": 14, "ID": "0005377702", "NAME": "KATE DISHMAN REHABILITATION HOSPITAL", "ADDRESS": "2830 CALDER STREET, 6TH FLOOR SOUTH", "CITY": "BEAUMONT", "STATE": "TX", "ZIP": "77702", "ZIP4": "NOT AVAILABLE", "TELEPHONE": "(409) 899-8380", "TYPE": "REHABILITATION", "STATUS": "OPEN", "POPULATION": 27, "COUNTY": "JEFFERSON", "COUNTYFIPS": "48245", "COUNTRY": "USA", "LATITUDE": 30.086909027000047, "LONGITUDE": -94.132216254999946, "NAICS_CODE": "622310", "NAICS_DESC": "REHABILITATION HOSPITALS (EXCEPT ALCOHOLISM, DRUG ADDICTION)", "SOURCE": "https:\/\/hhs.texas.gov\/doing-business-hhs\/provider-portals\/health-care-facilities-regulation", "SOURCEDATE": "2019\/09\/03 00:00:00", "VAL_METHOD": "IMAGERY", "VAL_DATE": "2014\/01\/21 00:00:00", "WEBSITE": "http:\/\/www.healthsouthbeaumont.com", "STATE_ID": "NOT AVAILABLE", "ALT_NAME": "NOT AVAILABLE", "ST_FIPS": "48", "OWNER": "PROPRIETARY", "TTL_STAFF": -999, "BEDS": 27.0, "TRAUMA": "NOT AVAILABLE", "HELIPAD": "Y" }, "geometry": { "type": "Point", "coordinates": [ -94.132216254560632, 30.086909027023115 ] } },
{ "type": "Feature", "properties": { "OBJECTID": 15, "ID": "0004977702", "NAME": "CHRISTUS DUBUIS HOSPITAL OF BEAUMONT", "ADDRESS": "2830 CALDER AVENUE, 4TH FLOOR", "CITY": "BEAUMONT", "STATE": "TX", "ZIP": "77702", "ZIP4": "NOT AVAILABLE", "TELEPHONE": "(409) 899-7680", "TYPE": "LONG TERM CARE", "STATUS": "OPEN", "POPULATION": 51, "COUNTY": "JEFFERSON", "COUNTYFIPS": "48245", "COUNTRY": "USA", "LATITUDE": 30.087256770000067, "LONGITUDE": -94.132927863999953, "NAICS_CODE": "622310", "NAICS_DESC": "SPECIALTY (EXCEPT PSYCHIATRIC AND SUBSTANCE ABUSE) HOSPITALS", "SOURCE": "https:\/\/hhs.texas.gov\/doing-business-hhs\/provider-portals\/health-care-facilities-regulation", "SOURCEDATE": "2019\/09\/03 00:00:00", "VAL_METHOD": "IMAGERY", "VAL_DATE": "2014\/02\/10 00:00:00", "WEBSITE": "http:\/\/www.dubuis.org\/beaumontandportarthursystem-christusdubuishospitalofbeaumont", "STATE_ID": "NOT AVAILABLE", "ALT_NAME": "NOT AVAILABLE", "ST_FIPS": "48", "OWNER": "NON-PROFIT", "TTL_STAFF": -999, "BEDS": 51.0, "TRAUMA": "NOT AVAILABLE", "HELIPAD": "Y" }, "geometry": { "type": "Point", "coordinates": [ -94.132927863996102, 30.087256769788933 ] } },
{ "type": "Feature", "properties": { "OBJECTID": 16, "ID": "0007277704", "NAME": "BAPTIST HOSPITALS OF SOUTHEAST TEXAS", "ADDRESS": "3080 COLLEGE STREET", "CITY": "BEAUMONT", "STATE": "TX", "ZIP": "77701", "ZIP4": "NOT AVAILABLE", "TELEPHONE": "(409) 212-5000", "TYPE": "GENERAL ACUTE CARE", "STATUS": "OPEN", "POPULATION": 363, "COUNTY": "JEFFERSON", "COUNTYFIPS": "48245", "COUNTRY": "USA", "LATITUDE": 30.070608698000058, "LONGITUDE": -94.120039696999982, "NAICS_CODE": "622110", "NAICS_DESC": "GENERAL MEDICAL AND SURGICAL HOSPITALS", "SOURCE": "https:\/\/hhs.texas.gov\/doing-business-hhs\/provider-portals\/health-care-facilities-regulation", "SOURCEDATE": "2019\/09\/03 00:00:00", "VAL_METHOD": "IMAGERY\/OTHER", "VAL_DATE": "2014\/02\/10 00:00:00", "WEBSITE": "http:\/\/www.bhset.net", "STATE_ID": "NOT AVAILABLE", "ALT_NAME": "NOT AVAILABLE", "ST_FIPS": "48", "OWNER": "NON-PROFIT", "TTL_STAFF": -999, "BEDS": 363.0, "TRAUMA": "LEVEL IV", "HELIPAD": "Y" }, "geometry": { "type": "Point", "coordinates": [ -94.120039696885598, 30.070608697811444 ] } },
{ "type": "Feature", "properties": { "OBJECTID": 17, "ID": "0057575979", "NAME": "TYLER COUNTY HOSPITAL", "ADDRESS": "1100 WEST BLUFF STREET", "CITY": "WOODVILLE", "STATE": "TX", "ZIP": "75979", "ZIP4": "NOT AVAILABLE", "TELEPHONE": "(409) 283-6400", "TYPE": "GENERAL ACUTE CARE", "STATUS": "OPEN", "POPULATION": 49, "COUNTY": "TYLER", "COUNTYFIPS": "48457", "COUNTRY": "USA", "LATITUDE": 30.77603582200004, "LONGITUDE": -94.427636322999945, "NAICS_CODE": "622110", "NAICS_DESC": "GENERAL MEDICAL AND SURGICAL HOSPITALS", "SOURCE": "https:\/\/hhs.texas.gov\/doing-business-hhs\/provider-portals\/health-care-facilities-regulation", "SOURCEDATE": "2019\/09\/03 00:00:00", "VAL_METHOD": "IMAGERY\/OTHER", "VAL_DATE": "2014\/03\/12 00:00:00", "WEBSITE": "http:\/\/www.tchospital.us", "STATE_ID": "NOT AVAILABLE", "ALT_NAME": "NOT AVAILABLE", "ST_FIPS": "48", "OWNER": "GOVERNMENT - DISTRICT\/AUTHORITY", "TTL_STAFF": -999, "BEDS": 49.0, "TRAUMA": "LEVEL IV", "HELIPAD": "Y" }, "geometry": { "type": "Point", "coordinates": [ -94.427636323100771, 30.77603582174601 ] } },
{ "type": "Feature", "properties": { "OBJECTID": 18, "ID": "0136177657", "NAME": "ALTUS LUMBERTON LP", "ADDRESS": "137 NORTH LHS DRIVE", "CITY": "LUMBERTON", "STATE": "TX", "ZIP": "77657", "ZIP4": "8620", "TELEPHONE": "NOT AVAILABLE", "TYPE": "GENERAL ACUTE CARE", "STATUS": "CLOSED", "POPULATION": -999, "COUNTY": "HARDIN", "COUNTYFIPS": "48199", "COUNTRY": "USA", "LATITUDE": 30.261889348000068, "LONGITUDE": -94.22092691499995, "NAICS_CODE": "622110", "NAICS_DESC": "GENERAL MEDICAL AND SURGICAL HOSPITALS", "SOURCE": "http:\/\/www.dshs.state.tx.us\/chs\/hosp\/hosp2.shtm", "SOURCEDATE": "2014\/09\/23 00:00:00", "VAL_METHOD": "IMAGERY\/OTHER", "VAL_DATE": "2014\/12\/09 00:00:00", "WEBSITE": "NOT AVAILABLE", "STATE_ID": "NOT AVAILABLE", "ALT_NAME": "NOT AVAILABLE", "ST_FIPS": "48", "OWNER": "PROPRIETARY", "TTL_STAFF": -999, "BEDS": -999.0, "TRAUMA": "NOT AVAILABLE", "HELIPAD": "N" }, "geometry": { "type": "Point", "coordinates": [ -94.220926914568409, 30.261889347710465 ] } },
{ "type": "Feature", "properties": { "OBJECTID": 19, "ID": "0078777701", "NAME": "BAPTIST HOSPITALS OF SOUTHEAST TEXAS FANNIN BEHAVIORAL CENTER", "ADDRESS": "3250 FANNIN", "CITY": "BEAUMONT", "STATE": "TX", "ZIP": "77701", "ZIP4": "NOT AVAILABLE", "TELEPHONE": "(409) 212-7000", "TYPE": "PSYCHIATRIC", "STATUS": "OPEN", "POPULATION": 120, "COUNTY": "JEFFERSON", "COUNTYFIPS": "48245", "COUNTRY": "USA", "LATITUDE": 30.072904878000031, "LONGITUDE": -94.122954536999941, "NAICS_CODE": "622210", "NAICS_DESC": "PSYCHIATRIC AND SUBSTANCE ABUSE HOSPITALS", "SOURCE": "https:\/\/hhs.texas.gov\/doing-business-hhs\/provider-portals\/health-care-facilities-regulation", "SOURCEDATE": "2019\/09\/03 00:00:00", "VAL_METHOD": "IMAGERY", "VAL_DATE": "2017\/01\/11 00:00:00", "WEBSITE": "http:\/\/www.bhset.net\/health-services\/behavioral-health-services.aspx", "STATE_ID": "NOT AVAILABLE", "ALT_NAME": "NOT AVAILABLE", "ST_FIPS": "48", "OWNER": "NON-PROFIT", "TTL_STAFF": -999, "BEDS": 120.0, "TRAUMA": "NOT AVAILABLE", "HELIPAD": "N" }, "geometry": { "type": "Point", "coordinates": [ -94.122954536844787, 30.072904878346684 ] } },
{ "type": "Feature", "properties": { "OBJECTID": 20, "ID": "0034677351", "NAME": "CHI ST LUKES HEALTH - MEMORIAL LIVINGSTON", "ADDRESS": "1717 U.S. 59 LOOP NORTH", "CITY": "LIVINGSTON", "STATE": "TX", "ZIP": "77351", "ZIP4": "NOT AVAILABLE", "TELEPHONE": "(936) 329-8700", "TYPE": "GENERAL ACUTE CARE", "STATUS": "OPEN", "POPULATION": 66, "COUNTY": "POLK", "COUNTYFIPS": "48373", "COUNTRY": "USA", "LATITUDE": 30.730871709000041, "LONGITUDE": -94.939392483999939, "NAICS_CODE": "622110", "NAICS_DESC": "GENERAL MEDICAL AND SURGICAL HOSPITALS", "SOURCE": "https:\/\/hhs.texas.gov\/doing-business-hhs\/provider-portals\/health-care-facilities-regulation", "SOURCEDATE": "2019\/09\/03 00:00:00", "VAL_METHOD": "IMAGERY\/OTHER", "VAL_DATE": "2014\/02\/10 00:00:00", "WEBSITE": "http:\/\/www.memorialhealth.us\/centers\/livingston", "STATE_ID": "NOT AVAILABLE", "ALT_NAME": "MEMORIAL MEDICAL CENTER - LIVINGSTON", "ST_FIPS": "48", "OWNER": "NON-PROFIT", "TTL_STAFF": -999, "BEDS": 66.0, "TRAUMA": "LEVEL IV", "HELIPAD": "Y" }, "geometry": { "type": "Point", "coordinates": [ -94.939392483626079, 30.730871708951536 ] } },
{ "type": "Feature", "properties": { "OBJECTID": 21, "ID": "0005577701", "NAME": "MID - JEFFERSON EXTENDED CARE HOSPITAL OF BEAUMONT", "ADDRESS": "860 SOUTH 8TH STREET", "CITY": "BEAUMONT", "STATE": "TX", "ZIP": "77701", "ZIP4": "NOT AVAILABLE", "TELEPHONE": "(409) 236-8700", "TYPE": "LONG TERM CARE", "STATUS": "OPEN", "POPULATION": 18, "COUNTY": "JEFFERSON", "COUNTYFIPS": "48245", "COUNTRY": "USA", "LATITUDE": 30.069535331000054, "LONGITUDE": -94.12531493399996, "NAICS_CODE": "622310", "NAICS_DESC": "SPECIALTY (EXCEPT PSYCHIATRIC AND SUBSTANCE ABUSE) HOSPITALS", "SOURCE": "https:\/\/hhs.texas.gov\/doing-business-hhs\/provider-portals\/health-care-facilities-regulation", "SOURCEDATE": "2019\/09\/03 00:00:00", "VAL_METHOD": "IMAGERY", "VAL_DATE": "2014\/03\/12 00:00:00", "WEBSITE": "http:\/\/www.christusdubuis.org\/beaumontandportarthursystem-christusdubuishospitalofbeaumont", "STATE_ID": "NOT AVAILABLE", "ALT_NAME": "HARBOR HOSPITAL OF SOUTHEAST TEXAS", "ST_FIPS": "48", "OWNER": "PROPRIETARY", "TTL_STAFF": -999, "BEDS": 18.0, "TRAUMA": "NOT AVAILABLE", "HELIPAD": "Y" }, "geometry": { "type": "Point", "coordinates": [ -94.125314933915661, 30.069535330907275 ] } },
{ "type": "Feature", "properties": { "OBJECTID": 22, "ID": "0182977642", "NAME": "CHRISTUS ST MARY OUTPATIENT CENTER MID COUNTY", "ADDRESS": "8801 9TH AVENUE", "CITY": "PORT ARTHUR", "STATE": "TX", "ZIP": "77642", "ZIP4": "NOT AVAILABLE", "TELEPHONE": "(409) 724-3600", "TYPE": "SPECIAL", "STATUS": "OPEN", "POPULATION": 2, "COUNTY": "JEFFERSON", "COUNTYFIPS": "48245", "COUNTRY": "USA", "LATITUDE": 29.953221068000062, "LONGITUDE": -93.986391078999986, "NAICS_CODE": "622310", "NAICS_DESC": "SPECIALTY (EXCEPT PSYCHIATRIC AND SUBSTANCE ABUSE) HOSPITALS", "SOURCE": "https:\/\/hhs.texas.gov\/doing-business-hhs\/provider-portals\/health-care-facilities-regulation", "SOURCEDATE": "2019\/09\/03 00:00:00", "VAL_METHOD": "IMAGERY", "VAL_DATE": "2020\/05\/06 00:00:00", "WEBSITE": "NOT AVAILABLE", "STATE_ID": "444", "ALT_NAME": "NOT AVAILABLE", "ST_FIPS": "48", "OWNER": "NON-PROFIT", "TTL_STAFF": -999, "BEDS": 2.0, "TRAUMA": "NOT AVAILABLE", "HELIPAD": "N" }, "geometry": { "type": "Point", "coordinates": [ -93.986391078894442, 29.953221067676949 ] } },
{ "type": "Feature", "properties": { "OBJECTID": 23, "ID": "0057277665", "NAME": "WINNIE COMMUNITY HOSPITAL", "ADDRESS": "538 BROADWAY", "CITY": "WINNIE", "STATE": "TX", "ZIP": "77665", "ZIP4": "NOT AVAILABLE", "TELEPHONE": "(409) 296-6000", "TYPE": "CRITICAL ACCESS", "STATUS": "OPEN", "POPULATION": 25, "COUNTY": "CHAMBERS", "COUNTYFIPS": "48071", "COUNTRY": "USA", "LATITUDE": 29.81969710900006, "LONGITUDE": -94.376468689999967, "NAICS_CODE": "622110", "NAICS_DESC": "GENERAL MEDICAL AND SURGICAL HOSPITALS", "SOURCE": "https:\/\/hhs.texas.gov\/doing-business-hhs\/provider-portals\/health-care-facilities-regulation", "SOURCEDATE": "2019\/09\/03 00:00:00", "VAL_METHOD": "IMAGERY", "VAL_DATE": "2014\/02\/10 00:00:00", "WEBSITE": "http:\/\/www.winniehospital.com", "STATE_ID": "NOT AVAILABLE", "ALT_NAME": "NOT AVAILABLE", "ST_FIPS": "48", "OWNER": "PROPRIETARY", "TTL_STAFF": -999, "BEDS": 25.0, "TRAUMA": "NOT AVAILABLE", "HELIPAD": "Y" }, "geometry": { "type": "Point", "coordinates": [ -94.3764686896575, 29.819697109040742 ] } },
{ "type": "Feature", "properties": { "OBJECTID": 24, "ID": "0024575948", "NAME": "SABINE COUNTY HOSPITAL", "ADDRESS": "2301 WORTH ST", "CITY": "HEMPHILL", "STATE": "TX", "ZIP": "75948", "ZIP4": "NOT AVAILABLE", "TELEPHONE": "NOT AVAILABLE", "TYPE": "CRITICAL ACCESS", "STATUS": "OPEN", "POPULATION": 25, "COUNTY": "SABINE", "COUNTYFIPS": "48403", "COUNTRY": "USA", "LATITUDE": 31.333808731000033, "LONGITUDE": -93.862964513999941, "NAICS_CODE": "622110", "NAICS_DESC": "GENERAL MEDICAL AND SURGICAL HOSPITALS", "SOURCE": "https:\/\/hhs.texas.gov\/doing-business-hhs\/provider-portals\/health-care-facilities-regulation", "SOURCEDATE": "2019\/09\/03 00:00:00", "VAL_METHOD": "IMAGERY\/OTHER", "VAL_DATE": "2014\/02\/03 00:00:00", "WEBSITE": "http:\/\/sabinecountyhospital.com\/", "STATE_ID": "NOT AVAILABLE", "ALT_NAME": "NOT AVAILABLE", "ST_FIPS": "48", "OWNER": "PROPRIETARY", "TTL_STAFF": -999, "BEDS": 25.0, "TRAUMA": "LEVEL IV", "HELIPAD": "Y" }, "geometry": { "type": "Point", "coordinates": [ -93.862964513590484, 31.333808731305705 ] } },
{ "type": "Feature", "properties": { "OBJECTID": 25, "ID": "0004777707", "NAME": "PAM REHABILITATION HOSPITAL OF BEAUMONT", "ADDRESS": "3340 PLAZA 10 BOULEVARD", "CITY": "BEAUMONT", "STATE": "TX", "ZIP": "77707", "ZIP4": "NOT AVAILABLE", "TELEPHONE": "(409) 835-0835", "TYPE": "REHABILITATION", "STATUS": "OPEN", "POPULATION": 61, "COUNTY": "JEFFERSON", "COUNTYFIPS": "48245", "COUNTRY": "USA", "LATITUDE": 30.077417909000076, "LONGITUDE": -94.137889050999945, "NAICS_CODE": "622310", "NAICS_DESC": "REHABILITATION HOSPITALS (EXCEPT ALCOHOLISM, DRUG ADDICTION)", "SOURCE": "https:\/\/hhs.texas.gov\/doing-business-hhs\/provider-portals\/health-care-facilities-regulation", "SOURCEDATE": "2019\/09\/03 00:00:00", "VAL_METHOD": "IMAGERY", "VAL_DATE": "2014\/01\/21 00:00:00", "WEBSITE": "http:\/\/www.warmsprings.org\/", "STATE_ID": "NOT AVAILABLE", "ALT_NAME": "HEALTHSOUTH REHABILITATION HOSPITAL OF BEAUMONT", "ST_FIPS": "48", "OWNER": "PROPRIETARY", "TTL_STAFF": -999, "BEDS": 61.0, "TRAUMA": "NOT AVAILABLE", "HELIPAD": "N" }, "geometry": { "type": "Point", "coordinates": [ -94.137889050901165, 30.077417908971114 ] } },
{ "type": "Feature", "properties": { "OBJECTID": 26, "ID": "0023677619", "NAME": "RENAISSANCE HOSPITAL GROVES", "ADDRESS": "5500 39TH STREET", "CITY": "GROVES", "STATE": "TX", "ZIP": "77619", "ZIP4": "NOT AVAILABLE", "TELEPHONE": "NOT AVAILABLE", "TYPE": "GENERAL ACUTE CARE", "STATUS": "CLOSED", "POPULATION": 17, "COUNTY": "JEFFERSON", "COUNTYFIPS": "48245", "COUNTRY": "USA", "LATITUDE": 29.93896656700008, "LONGITUDE": -93.922282573999951, "NAICS_CODE": "622110", "NAICS_DESC": "GENERAL MEDICAL AND SURGICAL HOSPITALS", "SOURCE": "http:\/\/www.dshs.state.tx.us\/chs\/hosp\/hosp2.shtm", "SOURCEDATE": "2014\/09\/23 00:00:00", "VAL_METHOD": "IMAGERY", "VAL_DATE": "2020\/05\/08 00:00:00", "WEBSITE": "NOT AVAILABLE", "STATE_ID": "NOT AVAILABLE", "ALT_NAME": "NOT AVAILABLE", "ST_FIPS": "48", "OWNER": "PROPRIETARY", "TTL_STAFF": -999, "BEDS": 17.0, "TRAUMA": "NOT AVAILABLE", "HELIPAD": "N" }, "geometry": { "type": "Point", "coordinates": [ -93.922282574182972, 29.938966567192658 ] } },
{ "type": "Feature", "properties": { "OBJECTID": 27, "ID": "0040877630", "NAME": "BAPTIST ORANGE HOSPITAL", "ADDRESS": "608 STRICKLAND DRIVE", "CITY": "ORANGE", "STATE": "TX", "ZIP": "77630", "ZIP4": "NOT AVAILABLE", "TELEPHONE": "(409) 883-9361", "TYPE": "GENERAL ACUTE CARE", "STATUS": "OPEN", "POPULATION": 40, "COUNTY": "ORANGE", "COUNTYFIPS": "48361", "COUNTRY": "USA", "LATITUDE": 30.099819527000079, "LONGITUDE": -93.76655679299995, "NAICS_CODE": "622110", "NAICS_DESC": "GENERAL MEDICAL AND SURGICAL HOSPITALS", "SOURCE": "https:\/\/hhs.texas.gov\/doing-business-hhs\/provider-portals\/health-care-facilities-regulation", "SOURCEDATE": "2019\/09\/03 00:00:00", "VAL_METHOD": "IMAGERY\/OTHER", "VAL_DATE": "2020\/05\/08 00:00:00", "WEBSITE": "http:\/\/www.bhset.net", "STATE_ID": "NOT AVAILABLE", "ALT_NAME": "NOT AVAILABLE", "ST_FIPS": "48", "OWNER": "NON-PROFIT", "TTL_STAFF": -999, "BEDS": 40.0, "TRAUMA": "NOT AVAILABLE", "HELIPAD": "Y" }, "geometry": { "type": "Point", "coordinates": [ -93.76655679268265, 30.099819527327114 ] } },
{ "type": "Feature", "properties": { "OBJECTID": 28, "ID": "0078877643", "NAME": "CHRISTUS DUBUIS HOSPITAL OF PORT ARTHUR", "ADDRESS": "3600 GATES BLVD, 3RD FLOOR", "CITY": "PORT ARTHUR", "STATE": "TX", "ZIP": "77643", "ZIP4": "NOT AVAILABLE", "TELEPHONE": "(409) 989-5300", "TYPE": "LONG TERM CARE", "STATUS": "CLOSED", "POPULATION": 15, "COUNTY": "JEFFERSON", "COUNTYFIPS": "48245", "COUNTRY": "USA", "LATITUDE": 29.909710213000039, "LONGITUDE": -93.923892556999988, "NAICS_CODE": "622310", "NAICS_DESC": "EXTENDED CARE HOSPITALS (EXCEPT MENTAL, SUBSTANCE ABUSE)", "SOURCE": "http:\/\/www.dshs.texas.gov\/facilities\/find-a-licensee.aspx", "SOURCEDATE": "2017\/01\/09 00:00:00", "VAL_METHOD": "IMAGERY\/OTHER", "VAL_DATE": "2020\/05\/08 00:00:00", "WEBSITE": "http:\/\/www.christusdubuis.org\/beaumontandportarthursystem-christusdubuishospitalofbeaumont", "STATE_ID": "NOT AVAILABLE", "ALT_NAME": "NOT AVAILABLE", "ST_FIPS": "48", "OWNER": "NON-PROFIT", "TTL_STAFF": -999, "BEDS": 15.0, "TRAUMA": "NOT AVAILABLE", "HELIPAD": "Y" }, "geometry": { "type": "Point", "coordinates": [ -93.923892557293044, 29.909710213023587 ] } }
]
}
